{"type": "FeatureCollection", "features": [{"type": "Feature", "properties": {"id": "35871", "title": "Photo Essay: Resistance Art in Chile", "lang": "English", "date": "November 19, 2025", "url": "https://pulitzercenter.org/stories/photo-essay-resistance-art-chile"}, "geometry": {"type": "Point", "coordinates": [-70.640414, -33.438222]}}, {"type": "Feature", "properties": {"id": "35873", "title": "South Africa TB Snake Wreaking Havoc in Lesotho", "lang": "English", "date": "November 19, 2025", "url": "https://pulitzercenter.org/stories/south-africa-tb-snake-wreaking-havoc-lesotho"}, "geometry": {"type": "Point", "coordinates": [28.3, -29.6]}}, {"type": "Feature", "properties": {"id": "35875", "title": "Investigation: Nigerian Govt Looks Away As Fishers Face Deadly Attacks, Declining Stocks", "lang": "English", "date": "November 19, 2025", "url": "https://pulitzercenter.org/stories/investigation-nigerian-govt-looks-away-fishers-face-deadly-attacks-declining-stocks"}, "geometry": {"type": "Point", "coordinates": [8.675277, 9.081999]}}, {"type": "Feature", "properties": {"id": "35870", "title": "In Waters off Alaska, Fishermen Struggle To Keep Orcas From Their Catch", "lang": "English", "date": "November 19, 2025", "url": "https://pulitzercenter.org/stories/waters-alaska-fishermen-struggle-keep-orcas-their-catch"}, "geometry": {"type": "Point", "coordinates": [-166.53667, 53.87361]}}, {"type": "Feature", "properties": {"id": "35866", "title": "Two Caribbean Islands Seek Justice From France for Pesticide Poisoning", "lang": "English", "date": "November 18, 2025", "url": "https://pulitzercenter.org/stories/two-caribbean-islands-seek-justice-france-pesticide-poisoning"}, "geometry": {"type": "Point", "coordinates": [-61.7, 16.0333]}}, {"type": "Feature", "properties": {"id": "35861", "title": "In a Brutal Mississippi Jail, Inmates Say They Were Enlisted As Enforcers", "lang": "English", "date": "November 18, 2025", "url": "https://pulitzercenter.org/stories/brutal-mississippi-jail-inmates-say-they-were-enlisted-enforcers"}, "geometry": {"type": "Point", "coordinates": [-89.9415, 32.317296]}}, {"type": "Feature", "properties": {"id": "35862", "title": "A Rebel Act", "lang": "English", "date": "November 18, 2025", "url": "https://pulitzercenter.org/stories/rebel-act"}, "geometry": {"type": "Point", "coordinates": [-73.91, 40.68]}}, {"type": "Feature", "properties": {"id": "35867", "title": "An Immigrant&#039;s Journey of Resilience and Advocacy", "lang": "English", "date": "November 18, 2025", "url": "https://pulitzercenter.org/stories/immigrants-journey-resilience-and-advocacy"}, "geometry": {"type": "Point", "coordinates": [-74.006111, 40.712778]}}, {"type": "Feature", "properties": {"id": "35869", "title": "Alaska Bottom Trawlers Face Renewed Scrutiny Amid Halibut Decline", "lang": "English", "date": "November 18, 2025", "url": "https://pulitzercenter.org/stories/alaska-bottom-trawlers-face-renewed-scrutiny-amid-halibut-decline"}, "geometry": {"type": "Point", "coordinates": [-166.648333, 53.673333]}}, {"type": "Feature", "properties": {"id": "35857", "title": "Rice Cultivation in North Kivu: Between Drought, Hope, and New Seeds (Video)", "lang": "English", "date": "November 17, 2025", "url": "https://pulitzercenter.org/stories/rice-cultivation-north-kivu-between-drought-hope-and-new-seeds-video"}, "geometry": {"type": "Point", "coordinates": [14.8966, -0.6606]}}, {"type": "Feature", "properties": {"id": "35848", "title": "West African Woman Attempts Suicide After U.S. Deportation to Non-Native Country", "lang": "English", "date": "November 17, 2025", "url": "https://pulitzercenter.org/stories/west-african-woman-attempts-suicide-after-us-deportation-non-native-country"}, "geometry": {"type": "Point", "coordinates": [-0.2, 5.55]}}, {"type": "Feature", "properties": {"id": "35849", "title": "A Dead Glacier Is a Loss. A Dying One Is a Threat.", "lang": "English", "date": "November 17, 2025", "url": "https://pulitzercenter.org/stories/dead-glacier-loss-dying-one-threat"}, "geometry": {"type": "Point", "coordinates": [86.65, 27.831]}}, {"type": "Feature", "properties": {"id": "35858", "title": "Shrinking Prize: Challenges Mount for Alaska and Washington Fishing Crews As Halibut Decline", "lang": "English", "date": "November 17, 2025", "url": "https://pulitzercenter.org/stories/shrinking-prize-challenges-mount-alaska-and-washington-fishing-crews-halibut-decline"}, "geometry": {"type": "Point", "coordinates": [-166.648333, 53.67364741]}}, {"type": "Feature", "properties": {"id": "35836", "title": "A Liberated Zimbabwe Church After UMC Splintering Points to Historic Shift Across Africa", "lang": "English", "date": "November 14, 2025", "url": "https://pulitzercenter.org/stories/liberated-zimbabwe-church-after-umc-splintering-points-historic-shift-across-africa"}, "geometry": {"type": "Point", "coordinates": [29.154857, -19.015438]}}, {"type": "Feature", "properties": {"id": "35842", "title": "Guyana: Growth Through ‘Oil Money’", "lang": "English", "date": "November 14, 2025", "url": "https://pulitzercenter.org/stories/guyana-growth-through-oil-money"}, "geometry": {"type": "Point", "coordinates": [-58.155, 6.801111]}}, {"type": "Feature", "properties": {"id": "35843", "title": "Hunted and Hooked: Costa Rica’s Hammerhead Sharks Caught in a Loophole of Law and Survival", "lang": "English", "date": "November 14, 2025", "url": "https://pulitzercenter.org/stories/hunted-and-hooked-costa-ricas-hammerhead-sharks-caught-loophole-law-and-survival"}, "geometry": {"type": "Point", "coordinates": [-83.165321, 8.638714]}}, {"type": "Feature", "properties": {"id": "35841", "title": "In Panama, Migrants Hail a Boat Ride South, Away From Their American Dream", "lang": "English", "date": "November 14, 2025", "url": "https://pulitzercenter.org/stories/panama-migrants-hail-boat-ride-south-away-their-american-dream"}, "geometry": {"type": "Point", "coordinates": [-79.3667, 9.5833]}}, {"type": "Feature", "properties": {"id": "35839", "title": "For Many Disabled Fire Victims in Los Angeles, a Continuing Trauma", "lang": "English", "date": "November 14, 2025", "url": "https://pulitzercenter.org/stories/many-disabled-fire-victims-los-angeles-continuing-trauma"}, "geometry": {"type": "Point", "coordinates": [-118.526944, 34.048056]}}, {"type": "Feature", "properties": {"id": "35837", "title": "Whales, Extinction and the Sounds of Underwater Noise Pollution", "lang": "English", "date": "November 14, 2025", "url": "https://pulitzercenter.org/stories/whales-extinction-and-sounds-underwater-noise-pollution"}, "geometry": {"type": "Point", "coordinates": [-71.049444, 42.359167]}}, {"type": "Feature", "properties": {"id": "35827", "title": "How Members of the Paakantyi Community Are Protecting Their Native Language From Endangerment", "lang": "English", "date": "November 13, 2025", "url": "https://pulitzercenter.org/stories/how-members-paakantyi-community-are-protecting-their-native-language-endangerment"}, "geometry": {"type": "Point", "coordinates": [147.0, -32.0]}}, {"type": "Feature", "properties": {"id": "35832", "title": "No Pará, cadeia de fornecedores da JBS inclui grileiros de terras da reforma agrária", "lang": "Portuguese", "date": "Novembro 13, 2025", "url": "https://pulitzercenter.org/pt-br/stories/no-para-cadeia-de-fornecedores-da-jbs-inclui-grileiros-de-terras-da-reforma-agraria"}, "geometry": {"type": "Point", "coordinates": [-52.4, -3.85]}}, {"type": "Feature", "properties": {"id": "35830", "title": "‘I Tried, I Was Close.’ Why One Venezuelan Migrant Decides To Return Home", "lang": "English", "date": "November 13, 2025", "url": "https://pulitzercenter.org/stories/i-tried-i-was-close-why-one-venezuelan-migrant-decides-return-home"}, "geometry": {"type": "Point", "coordinates": [-79.3667, 9.58361441]}}, {"type": "Feature", "properties": {"id": "35833", "title": "Las preguntas que la FIAP no responde sobre las cárceles de migrantes de España en Mauritania", "lang": "Spanish", "date": "Noviembre 13, 2025", "url": "https://pulitzercenter.org/es/stories/las-preguntas-que-la-fiap-no-responde-sobre-las-carceles-de-migrantes-de-espana-en"}, "geometry": {"type": "Point", "coordinates": [-15.9725, 18.085278]}}, {"type": "Feature", "properties": {"id": "35828", "title": "Is Your South Florida Street Flooded? How To Let the Right People Know", "lang": "English", "date": "November 13, 2025", "url": "https://pulitzercenter.org/stories/your-south-florida-street-flooded-how-let-right-people-know"}, "geometry": {"type": "Point", "coordinates": [-81.760254, 27.994402]}}, {"type": "Feature", "properties": {"id": "35826", "title": "‘Street Is Lake, Urgent!’ Mapping Reveals Flooding Blind Spots in South Florida", "lang": "English", "date": "November 13, 2025", "url": "https://pulitzercenter.org/stories/street-lake-urgent-mapping-reveals-flooding-blind-spots-south-florida"}, "geometry": {"type": "Point", "coordinates": [-81.760254, 27.99471641]}}, {"type": "Feature", "properties": {"id": "35818", "title": "Commentary: How To Preserve Africa’s Natural Riches for Everyone", "lang": "English", "date": "November 12, 2025", "url": "https://pulitzercenter.org/stories/commentary-how-preserve-africas-natural-riches-everyone"}, "geometry": {"type": "Point", "coordinates": [21.758664, -4.038333]}}, {"type": "Feature", "properties": {"id": "35823", "title": "El gobierno de España abre dos cárceles de migrantes en Mauritania", "lang": "Spanish", "date": "Noviembre 12, 2025", "url": "https://pulitzercenter.org/es/stories/el-gobierno-de-espana-abre-dos-carceles-de-migrantes-en-mauritania"}, "geometry": {"type": "Point", "coordinates": [-15.9725, 18.08559241]}}, {"type": "Feature", "properties": {"id": "35819", "title": "Gold, Guns and Cartels: The Battle for a Billion-Dollar Mine", "lang": "English", "date": "November 12, 2025", "url": "https://pulitzercenter.org/stories/gold-guns-and-cartels-battle-billion-dollar-mine"}, "geometry": {"type": "Point", "coordinates": [-99.129228, 20.799976]}}, {"type": "Feature", "properties": {"id": "35811", "title": "In Timor-Leste, Even Modest Cuts in US Foreign Aid Add Up", "lang": "English", "date": "November 11, 2025", "url": "https://pulitzercenter.org/stories/timor-leste-even-modest-cuts-us-foreign-aid-add"}, "geometry": {"type": "Point", "coordinates": [125.578333, -8.553611]}}, {"type": "Feature", "properties": {"id": "35809", "title": "Migrants Enriched This Indigenous Village in Panama. What Happens Now That They’re Gone?", "lang": "English", "date": "November 11, 2025", "url": "https://pulitzercenter.org/stories/migrants-enriched-indigenous-village-panama-what-happens-now-theyre-gone"}, "geometry": {"type": "Point", "coordinates": [-77.46, 7.9]}}, {"type": "Feature", "properties": {"id": "35815", "title": "Cartels Seized a Mexican Gold Mine. He Was Hired To Win It Back", "lang": "English", "date": "November 11, 2025", "url": "https://pulitzercenter.org/stories/cartels-seized-mexican-gold-mine-he-was-hired-win-it-back"}, "geometry": {"type": "Point", "coordinates": [-102.5375, 23.626]}}, {"type": "Feature", "properties": {"id": "35805", "title": "As UMC Awaits Results on Historic Restructuring, What It Looks Like Day to Day in Zimbabwe", "lang": "English", "date": "November 10, 2025", "url": "https://pulitzercenter.org/stories/umc-awaits-results-historic-restructuring-what-it-looks-day-day-zimbabwe"}, "geometry": {"type": "Point", "coordinates": [31.244722, -17.889722]}}, {"type": "Feature", "properties": {"id": "35803", "title": "Emangnya AI Bisa Gantiin Jurnalis? | RAME Bareng Antonia Timmerman dan Rio Tuasikal", "lang": "Indonesian", "date": "November 10, 2025", "url": "https://pulitzercenter.org/id/stories/emangnya-ai-bisa-gantiin-jurnalis-rame-bareng-antonia-timmerman-dan-rio-tuasikal"}, "geometry": {"type": "Point", "coordinates": [106.826944, -6.175278]}}, {"type": "Feature", "properties": {"id": "35804", "title": "The Women Carrying Water—and the World", "lang": "English", "date": "November 10, 2025", "url": "https://pulitzercenter.org/stories/women-carrying-water-and-world"}, "geometry": {"type": "Point", "coordinates": [74.519968, 33.629931]}}, {"type": "Feature", "properties": {"id": "35807", "title": "Photo Essay: Behind Closed Doors in Ceuta", "lang": "English", "date": "November 10, 2025", "url": "https://pulitzercenter.org/stories/photo-essay-behind-closed-doors-ceuta"}, "geometry": {"type": "Point", "coordinates": [-5.315556, 35.888333]}}, {"type": "Feature", "properties": {"id": "35806", "title": "Idaho Leaders Urged To Address Failures After Pulitzer Center-Supported Series on Prison Sex Abuse", "lang": "English", "date": "November 10, 2025", "url": "https://pulitzercenter.org/stories/idaho-leaders-urged-address-failures-after-pulitzer-center-supported-series-prison-sex"}, "geometry": {"type": "Point", "coordinates": [-116.201667, 43.615833]}}, {"type": "Feature", "properties": {"id": "35800", "title": "Post-Splintering, UMC Ratifies Restructuring, Gives Autonomy to Non-US Churches", "lang": "English", "date": "November 7, 2025", "url": "https://pulitzercenter.org/stories/post-splintering-umc-ratifies-restructuring-gives-autonomy-non-us-churches"}, "geometry": {"type": "Point", "coordinates": [29.146667, -19.015438]}}, {"type": "Feature", "properties": {"id": "35802", "title": "Some Migrants Headed for the US Are Giving Up and Going Home (Video)", "lang": "English", "date": "November 7, 2025", "url": "https://pulitzercenter.org/stories/some-migrants-headed-us-are-giving-and-going-home-video"}, "geometry": {"type": "Point", "coordinates": [-79.534722, 8.971111]}}, {"type": "Feature", "properties": {"id": "35795", "title": "Behind Closed Doors in Ceuta", "lang": "English", "date": "November 7, 2025", "url": "https://pulitzercenter.org/stories/behind-closed-doors-ceuta"}, "geometry": {"type": "Point", "coordinates": [-5.315556, 35.88864741]}}, {"type": "Feature", "properties": {"id": "35780", "title": "Commentary: How Kenya’s HIV Care System Is Buckling After Donor Withdrawal", "lang": "English", "date": "November 6, 2025", "url": "https://pulitzercenter.org/stories/commentary-how-kenyas-hiv-care-system-buckling-after-donor-withdrawal"}, "geometry": {"type": "Point", "coordinates": [37.9062, -0.0236]}}, {"type": "Feature", "properties": {"id": "35781", "title": "Election Officials Move 12 Polling Places Before Mississippi’s Nov. 4 Legislative Special Elections", "lang": "English", "date": "November 6, 2025", "url": "https://pulitzercenter.org/stories/election-officials-move-12-polling-places-mississippis-nov-4-legislative-special-elections"}, "geometry": {"type": "Point", "coordinates": [-90.44, 32.26]}}, {"type": "Feature", "properties": {"id": "35774", "title": "Healthcare System on Its Knees: Why Lesotho Is Losing the War on TB", "lang": "English", "date": "November 5, 2025", "url": "https://pulitzercenter.org/stories/healthcare-system-its-knees-why-lesotho-losing-war-tb"}, "geometry": {"type": "Point", "coordinates": [26.720833, -27.983056]}}, {"type": "Feature", "properties": {"id": "35777", "title": "A Top Zimbabwe Malaria Research Center Killed by USAID Closure, Resurrected by UMC", "lang": "English", "date": "November 5, 2025", "url": "https://pulitzercenter.org/stories/top-zimbabwe-malaria-research-center-killed-usaid-closure-resurrected-umc"}, "geometry": {"type": "Point", "coordinates": [32.669444, -18.972778]}}, {"type": "Feature", "properties": {"id": "35776", "title": "‘On Our Own Territory’: Colombia’s Last Nomadic Tribe Fights To Return Home", "lang": "English", "date": "November 5, 2025", "url": "https://pulitzercenter.org/stories/our-own-territory-colombias-last-nomadic-tribe-fights-return-home"}, "geometry": {"type": "Point", "coordinates": [-72.6416667, 2.5683333]}}, {"type": "Feature", "properties": {"id": "35766", "title": "The Quinoa Bubble (German)", "lang": "English", "date": "November 4, 2025", "url": "https://pulitzercenter.org/stories/quinoa-bubble-german"}, "geometry": {"type": "Point", "coordinates": [-68.12, -16.49]}}, {"type": "Feature", "properties": {"id": "35768", "title": "Under New Strategy, US Flies Deportees to Southern Tip of Mexico", "lang": "English", "date": "November 4, 2025", "url": "https://pulitzercenter.org/stories/under-new-strategy-us-flies-deportees-southern-tip-mexico"}, "geometry": {"type": "Point", "coordinates": [-92.266667, 14.9]}}, {"type": "Feature", "properties": {"id": "35764", "title": "Watched but Unprotected: How Lucknow’s Safe City Project Fails Women", "lang": "English", "date": "November 4, 2025", "url": "https://pulitzercenter.org/stories/watched-unprotected-how-lucknows-safe-city-project-fails-women"}, "geometry": {"type": "Point", "coordinates": [80.95, 26.85]}}, {"type": "Feature", "properties": {"id": "35753", "title": "What a United Methodist Conference in Zimbabwe Says About Churches’ Desire To Stay in UMC", "lang": "English", "date": "November 3, 2025", "url": "https://pulitzercenter.org/stories/what-united-methodist-conference-zimbabwe-says-about-churches-desire-stay-umc"}, "geometry": {"type": "Point", "coordinates": [31.244722, -17.88940759]}}, {"type": "Feature", "properties": {"id": "35755", "title": "Mexico’s Southern Border With Guatemala Is a Different Place in 2025. Here’s Why", "lang": "English", "date": "November 3, 2025", "url": "https://pulitzercenter.org/stories/mexicos-southern-border-guatemala-different-place-2025-heres-why"}, "geometry": {"type": "Point", "coordinates": [-91.786001, 16.003286]}}, {"type": "Feature", "properties": {"id": "35751", "title": "As Fracturing Harms UMC Brand, How a Zimbabwe High School Displays Pride in Denomination", "lang": "English", "date": "October 31, 2025", "url": "https://pulitzercenter.org/stories/fracturing-harms-umc-brand-how-zimbabwe-high-school-displays-pride-denomination"}, "geometry": {"type": "Point", "coordinates": [31.24495562, -17.88949968]}}, {"type": "Feature", "properties": {"id": "35750", "title": "Protecting Polluters: Florida Lets Big Companies Pollute With Impunity. Waterways Suffer.", "lang": "English", "date": "October 31, 2025", "url": "https://pulitzercenter.org/stories/protecting-polluters-florida-lets-big-companies-pollute-impunity-waterways-suffer"}, "geometry": {"type": "Point", "coordinates": [-82.057778, 29.216389]}}, {"type": "Feature", "properties": {"id": "35745", "title": "ONGs acionam STF para investigação de máquinas compradas com emendas e usadas em desmate ilegal", "lang": "English", "date": "October 30, 2025", "url": "https://pulitzercenter.org/stories/ongs-acionam-stf-para-investigacao-de-maquinas-compradas-com-emendas-e-usadas-em-desmate"}, "geometry": {"type": "Point", "coordinates": [-46.6396, -23.5558]}}, {"type": "Feature", "properties": {"id": "35747", "title": "Migrants Are Heading South, Not North. What To Know About This Trump-Era Phenomenon", "lang": "English", "date": "October 30, 2025", "url": "https://pulitzercenter.org/stories/migrants-are-heading-south-not-north-what-know-about-trump-era-phenomenon"}, "geometry": {"type": "Point", "coordinates": [-100.553611, 19.691667]}}, {"type": "Feature", "properties": {"id": "35741", "title": "‘Whoo Whoo, Our Elephant!’ United Methodists in Zimbabwe Unify Ahead of Historic Decision", "lang": "English", "date": "October 29, 2025", "url": "https://pulitzercenter.org/stories/whoo-whoo-our-elephant-united-methodists-zimbabwe-unify-ahead-historic-decision"}, "geometry": {"type": "Point", "coordinates": [31.24505238, -17.889722]}}, {"type": "Feature", "properties": {"id": "35733", "title": "Congresso privilegia máquinas e destina menos de 1% das emendas para proteger ambiente", "lang": "Portuguese", "date": "Outubro 29, 2025", "url": "https://pulitzercenter.org/pt-br/stories/congresso-privilegia-maquinas-e-destina-menos-de-1-das-emendas-para-proteger-ambiente"}, "geometry": {"type": "Point", "coordinates": [-48.503889, -1.455833]}}, {"type": "Feature", "properties": {"id": "35725", "title": "Deputado diz que lei ambiental é burocracia e justifica apelido de Dirceu a trator usado em desmate", "lang": "Portuguese", "date": "Outubro 28, 2025", "url": "https://pulitzercenter.org/pt-br/stories/deputado-diz-que-lei-ambiental-e-burocracia-e-justifica-apelido-de-dirceu-trator-usado-em"}, "geometry": {"type": "Point", "coordinates": [-46.633333, -23.55]}}, {"type": "Feature", "properties": {"id": "35724", "title": "Máquinas compradas com emendas abriram estrada com desmate ilegal", "lang": "Portuguese", "date": "Outubro 28, 2025", "url": "https://pulitzercenter.org/pt-br/stories/maquinas-compradas-com-emendas-abriram-estrada-com-desmate-ilegal"}, "geometry": {"type": "Point", "coordinates": [-72.743889, -8.268889]}}, {"type": "Feature", "properties": {"id": "35721", "title": "Beyond Fortresses: Charting a New Path for Conservation in Tanzania", "lang": "English", "date": "October 28, 2025", "url": "https://pulitzercenter.org/stories/beyond-fortresses-charting-new-path-conservation-tanzania"}, "geometry": {"type": "Point", "coordinates": [39.280278, -6.816111]}}, {"type": "Feature", "properties": {"id": "35726", "title": "A Newsroom Silenced: Inside Indiana University’s Battle Over Student Press Independence", "lang": "English", "date": "October 28, 2025", "url": "https://pulitzercenter.org/stories/newsroom-silenced-inside-indiana-universitys-battle-over-student-press-independence"}, "geometry": {"type": "Point", "coordinates": [-86.526768, 39.16671]}}, {"type": "Feature", "properties": {"id": "35710", "title": "In Andhra Pradesh, Software Flaws Aid Land Grab From Tribal and Dalit Farmers", "lang": "English", "date": "October 24, 2025", "url": "https://pulitzercenter.org/stories/andhra-pradesh-software-flaws-aid-land-grab-tribal-and-dalit-farmers"}, "geometry": {"type": "Point", "coordinates": [79.739987, 15.9129]}}, {"type": "Feature", "properties": {"id": "35715", "title": "Immigration Fuels the US Economy. Here’s What Happens When There’s Less of It", "lang": "English", "date": "October 24, 2025", "url": "https://pulitzercenter.org/stories/immigration-fuels-us-economy-heres-what-happens-when-theres-less-it"}, "geometry": {"type": "Point", "coordinates": [-106.437, 31.737]}}, {"type": "Feature", "properties": {"id": "35708", "title": "How a Kenyan Community Displaced for Conservation Now Leads the Effort", "lang": "English", "date": "October 23, 2025", "url": "https://pulitzercenter.org/stories/how-kenyan-community-displaced-conservation-now-leads-effort"}, "geometry": {"type": "Point", "coordinates": [35.633333, 1.216667]}}, {"type": "Feature", "properties": {"id": "35706", "title": "Drowning in Devotion, Donations, and Debt in India", "lang": "English", "date": "October 23, 2025", "url": "https://pulitzercenter.org/stories/drowning-devotion-donations-and-debt-india"}, "geometry": {"type": "Point", "coordinates": [78.96288, 20.593684]}}, {"type": "Feature", "properties": {"id": "35691", "title": "Life and Loss at Sea: International Shipping’s Seafarer Abandonment Problem", "lang": "English", "date": "October 22, 2025", "url": "https://pulitzercenter.org/stories/life-and-loss-sea-international-shippings-seafarer-abandonment-problem"}, "geometry": {"type": "Point", "coordinates": [56.287778, 27.196111]}}, {"type": "Feature", "properties": {"id": "35697", "title": "North Atlantic Right Whale Population Grows for Fourth Straight Year, but Recovery Still Far Off", "lang": "English", "date": "October 22, 2025", "url": "https://pulitzercenter.org/stories/north-atlantic-right-whale-population-grows-fourth-straight-year-recovery-still-far"}, "geometry": {"type": "Point", "coordinates": [-70.934722, 41.636111]}}, {"type": "Feature", "properties": {"id": "35699", "title": "Schools in Wisconsin Charge Big Money for Teacher Misconduct Records", "lang": "English", "date": "October 22, 2025", "url": "https://pulitzercenter.org/stories/schools-wisconsin-charge-big-money-teacher-misconduct-records"}, "geometry": {"type": "Point", "coordinates": [-87.95, 43.05]}}, {"type": "Feature", "properties": {"id": "35686", "title": "Kenya’s Growing Carbon Market Is a Setback for Indigenous Land Rights", "lang": "English", "date": "October 21, 2025", "url": "https://pulitzercenter.org/stories/kenyas-growing-carbon-market-setback-indigenous-land-rights"}, "geometry": {"type": "Point", "coordinates": [35.735556, -0.609722]}}, {"type": "Feature", "properties": {"id": "35684", "title": "From One Voice to Many: Women Speak Out on Idaho Prison Abuse", "lang": "English", "date": "October 21, 2025", "url": "https://pulitzercenter.org/stories/one-voice-many-women-speak-out-idaho-prison-abuse"}, "geometry": {"type": "Point", "coordinates": [-116.22, 43.478]}}, {"type": "Feature", "properties": {"id": "35689", "title": "Can We Re-Freeze the Arctic—and Should We?\t(Audio)", "lang": "English", "date": "October 21, 2025", "url": "https://pulitzercenter.org/stories/can-we-re-freeze-arctic-and-should-we-audio"}, "geometry": {"type": "Point", "coordinates": [-86.798981, 70.453262]}}, {"type": "Feature", "properties": {"id": "35679", "title": "Idaho Law Challenges Prosecutors Seeking To Penalize Prison Guards for Sexual Abuse", "lang": "English", "date": "October 20, 2025", "url": "https://pulitzercenter.org/stories/idaho-law-challenges-prosecutors-seeking-penalize-prison-guards-sexual-abuse"}, "geometry": {"type": "Point", "coordinates": [-116.22, 43.47831441]}}, {"type": "Feature", "properties": {"id": "35678", "title": "Bencana lingkungan di Pantura Jawa: Warga perlahan tenggelam di kampung sendiri", "lang": "Indonesian", "date": "Oktober 19, 2025", "url": "https://pulitzercenter.org/id/stories/bencana-lingkungan-di-pantura-jawa-warga-perlahan-tenggelam-di-kampung-sendiri"}, "geometry": {"type": "Point", "coordinates": [113.921327, -0.789275]}}, {"type": "Feature", "properties": {"id": "35677", "title": "A volta de Goreth Suruí", "lang": "Portuguese", "date": "Outubro 17, 2025", "url": "https://pulitzercenter.org/pt-br/stories/volta-de-goreth-surui"}, "geometry": {"type": "Point", "coordinates": [-48.5, -1.45]}}, {"type": "Feature", "properties": {"id": "35675", "title": "Case Closed: Inside Idaho State Police’s Handling of Prison Sexual Abuse Complaints", "lang": "English", "date": "October 17, 2025", "url": "https://pulitzercenter.org/stories/case-closed-inside-idaho-state-polices-handling-prison-sexual-abuse-complaints"}, "geometry": {"type": "Point", "coordinates": [-116.21969362, 43.47822232]}}, {"type": "Feature", "properties": {"id": "35673", "title": "Investigation: Deadly Attacks at Sea Push Nigeria’s Fishers, Traders to the Brink", "lang": "English", "date": "October 16, 2025", "url": "https://pulitzercenter.org/stories/investigation-deadly-attacks-sea-push-nigerias-fishers-traders-brink"}, "geometry": {"type": "Point", "coordinates": [7.491389, 9.055556]}}, {"type": "Feature", "properties": {"id": "35669", "title": "How Indigenous Knowledge Is Aiding Pakistan&#039;s Fight Against Climate Change", "lang": "English", "date": "October 16, 2025", "url": "https://pulitzercenter.org/stories/how-indigenous-knowledge-aiding-pakistans-fight-against-climate-change"}, "geometry": {"type": "Point", "coordinates": [73.8908, 36.7267]}}, {"type": "Feature", "properties": {"id": "35668", "title": "In Idaho Women’s Prisons, Guards Get Away With Sexual Abuse and Victims Are Blamed", "lang": "English", "date": "October 16, 2025", "url": "https://pulitzercenter.org/stories/idaho-womens-prisons-guards-get-away-sexual-abuse-and-victims-are-blamed"}, "geometry": {"type": "Point", "coordinates": [-116.21956671, 43.478]}}, {"type": "Feature", "properties": {"id": "35666", "title": "200 Teacher Sexual Misconduct, Grooming Cases Shielded From Public in Wisconsin", "lang": "English", "date": "October 16, 2025", "url": "https://pulitzercenter.org/stories/200-teacher-sexual-misconduct-grooming-cases-shielded-public-wisconsin"}, "geometry": {"type": "Point", "coordinates": [-89.5, 44.5]}}, {"type": "Feature", "properties": {"id": "35661", "title": "&#039;Ekosida&#039; Pantura: Bagaimana konversi lahan tani ke industri membunuh mimpi swasembada pangan", "lang": "Indonesian", "date": "Oktober 15, 2025", "url": "https://pulitzercenter.org/id/stories/ekosida-pantura-bagaimana-konversi-lahan-tani-ke-industri-membunuh-mimpi-swasembada-pangan"}, "geometry": {"type": "Point", "coordinates": [108.324167, -6.352778]}}, {"type": "Feature", "properties": {"id": "35659", "title": "AI Deception: Meta, YouTube’s Regulatory Failure Rakes In Profit for Ponzi Scheme Operators", "lang": "English", "date": "October 15, 2025", "url": "https://pulitzercenter.org/stories/ai-deception-meta-youtubes-regulatory-failure-rakes-profit-ponzi-scheme-operators"}, "geometry": {"type": "Point", "coordinates": [3.5, 6.6]}}, {"type": "Feature", "properties": {"id": "35656", "title": "Staff Sexual Abuse in Idaho Women’s Prisons Goes Largely Unchecked", "lang": "English", "date": "October 15, 2025", "url": "https://pulitzercenter.org/stories/staff-sexual-abuse-idaho-womens-prisons-goes-largely-unchecked"}, "geometry": {"type": "Point", "coordinates": [-116.21969362, 43.47777768]}}, {"type": "Feature", "properties": {"id": "35662", "title": "Native Americans Fear Trump’s Alaska Road Will End Their Way of Life", "lang": "English", "date": "October 15, 2025", "url": "https://pulitzercenter.org/stories/native-americans-fear-trumps-alaska-road-will-end-their-way-life"}, "geometry": {"type": "Point", "coordinates": [-156.387222, 65.701944]}}, {"type": "Feature", "properties": {"id": "35648", "title": "What Happens When You Teach Kids That Wildlife Is Worth More Alive", "lang": "English", "date": "October 14, 2025", "url": "https://pulitzercenter.org/stories/what-happens-when-you-teach-kids-wildlife-worth-more-alive"}, "geometry": {"type": "Point", "coordinates": [31.485278, -24.011389]}}, {"type": "Feature", "properties": {"id": "35649", "title": "The Black Mambas Walk the Walk. I Tried To Keep Up.", "lang": "English", "date": "October 14, 2025", "url": "https://pulitzercenter.org/stories/black-mambas-walk-walk-i-tried-keep"}, "geometry": {"type": "Point", "coordinates": [29.5, -24.0]}}, {"type": "Feature", "properties": {"id": "35650", "title": "Seeds Are Key to Restoring the Amazon Rainforest—and AI Can Speed Up the Process", "lang": "English", "date": "October 14, 2025", "url": "https://pulitzercenter.org/stories/seeds-are-key-restoring-amazon-rainforest-and-ai-can-speed-process"}, "geometry": {"type": "Point", "coordinates": [-60.021667, -3.118889]}}, {"type": "Feature", "properties": {"id": "35646", "title": "The Idaho Prison Guard Who Preyed on Women—and the System That Hid His ‘Predatory’ Conduct", "lang": "English", "date": "October 14, 2025", "url": "https://pulitzercenter.org/stories/idaho-prison-guard-who-preyed-women-and-system-hid-his-predatory-conduct"}, "geometry": {"type": "Point", "coordinates": [-116.22, 43.47768559]}}, {"type": "Feature", "properties": {"id": "35636", "title": "&#039;Ekosida&#039; di Pantura: &#039;Kongkalikong&#039; yang menggerus ruang hidup warga pesisir utara Jawa", "lang": "Indonesian", "date": "Oktober 13, 2025", "url": "https://pulitzercenter.org/id/stories/ekosida-di-pantura-kongkalikong-yang-menggerus-ruang-hidup-warga-pesisir-utara-jawa"}, "geometry": {"type": "Point", "coordinates": [110.004444, -7.491667]}}, {"type": "Feature", "properties": {"id": "35634", "title": "Austin Startup Raises $1 Billion To Keep Texans’ Lights On", "lang": "English", "date": "October 9, 2025", "url": "https://pulitzercenter.org/stories/austin-startup-raises-1-billion-keep-texans-lights"}, "geometry": {"type": "Point", "coordinates": [-97.743056, 30.267222]}}, {"type": "Feature", "properties": {"id": "35626", "title": "A Letter to Lahore", "lang": "English", "date": "October 9, 2025", "url": "https://pulitzercenter.org/stories/letter-lahore"}, "geometry": {"type": "Point", "coordinates": [74.343611, 31.549722]}}, {"type": "Feature", "properties": {"id": "35629", "title": "Inside the Indonesian Boomtowns Powering the World’s Electric Vehicles", "lang": "English", "date": "October 9, 2025", "url": "https://pulitzercenter.org/stories/inside-indonesian-boomtowns-powering-worlds-electric-vehicles"}, "geometry": {"type": "Point", "coordinates": [111.21519, 35.3541]}}, {"type": "Feature", "properties": {"id": "35615", "title": "&#039;Ekosida&#039; di Pantura: Pengembangan industri ancam pesisir utara Jawa makin cepat tenggelam — &#039;Banjir sudah puluhan tahun, ini pembiaran sistematis&#039;", "lang": "Indonesian", "date": "Oktober 8, 2025", "url": "https://pulitzercenter.org/id/stories/ekosida-di-pantura-pengembangan-industri-ancam-pesisir-utara-jawa-makin-cepat-tenggelam"}, "geometry": {"type": "Point", "coordinates": [106.826944, -6.17496359]}}, {"type": "Feature", "properties": {"id": "35610", "title": "Climate Shocks, Governance Gaps and the Refugee Crisis in the Sahel", "lang": "English", "date": "October 8, 2025", "url": "https://pulitzercenter.org/stories/climate-shocks-governance-gaps-and-refugee-crisis-sahel"}, "geometry": {"type": "Point", "coordinates": [11.5, 12.0]}}, {"type": "Feature", "properties": {"id": "35611", "title": "Miel para resistir a la deforestación en el Impenetrable Chaqueño", "lang": "Spanish", "date": "Octubre 8, 2025", "url": "https://pulitzercenter.org/es/stories/miel-para-resistir-la-deforestacion-en-el-impenetrable-chaqueno"}, "geometry": {"type": "Point", "coordinates": [67.3667, 37.1833]}}, {"type": "Feature", "properties": {"id": "35602", "title": "Analysis: How AI Hype Deepens Labor Exploitation in the Name of ‘Efficiency’", "lang": "English", "date": "October 7, 2025", "url": "https://pulitzercenter.org/stories/analysis-how-ai-hype-deepens-labor-exploitation-name-efficiency"}, "geometry": {"type": "Point", "coordinates": [106.82716762, -6.17505568]}}, {"type": "Feature", "properties": {"id": "35595", "title": "In East Timor, U.S. Retreats From Plan To Build ‘Lifesaving’ Sewage Plant", "lang": "English", "date": "October 6, 2025", "url": "https://pulitzercenter.org/stories/east-timor-us-retreats-plan-build-lifesaving-sewage-plant"}, "geometry": {"type": "Point", "coordinates": [125.578333, -8.55329659]}}, {"type": "Feature", "properties": {"id": "35601", "title": "Baile Circular (Circular Dance)", "lang": "English", "date": "October 6, 2025", "url": "https://pulitzercenter.org/stories/baile-circular-circular-dance"}, "geometry": {"type": "Point", "coordinates": [-5.31528158, 35.88855532]}}, {"type": "Feature", "properties": {"id": "35594", "title": "News Analysis: Freedom To Read Is in Peril", "lang": "English", "date": "October 6, 2025", "url": "https://pulitzercenter.org/stories/news-analysis-freedom-read-peril"}, "geometry": {"type": "Point", "coordinates": [-93.298889, 37.045278]}}, {"type": "Feature", "properties": {"id": "35592", "title": "The Pernicious Infections Infiltrating Ukraine’s Front Lines", "lang": "English", "date": "October 6, 2025", "url": "https://pulitzercenter.org/stories/pernicious-infections-infiltrating-ukraines-front-lines"}, "geometry": {"type": "Point", "coordinates": [30.516667, 50.45]}}, {"type": "Feature", "properties": {"id": "35588", "title": "No Route Home: Climate Change Threatens Kashmir’s Nomadic Traditions", "lang": "English", "date": "October 3, 2025", "url": "https://pulitzercenter.org/stories/no-route-home-climate-change-threatens-kashmirs-nomadic-traditions"}, "geometry": {"type": "Point", "coordinates": [74.6667, 34.0333]}}, {"type": "Feature", "properties": {"id": "35587", "title": "Far From Home, Carried by Community: In Austria, a Quiet Network Sustains Filipino Nurses", "lang": "English", "date": "October 3, 2025", "url": "https://pulitzercenter.org/stories/far-home-carried-community-austria-quiet-network-sustains-filipino-nurses"}, "geometry": {"type": "Point", "coordinates": [16.3725, 48.208333]}}, {"type": "Feature", "properties": {"id": "35585", "title": "Filipino Nurse Who Became a Health Care Leader in Austria Gets Ready To Pass the Torch", "lang": "English", "date": "October 3, 2025", "url": "https://pulitzercenter.org/stories/filipino-nurse-who-became-health-care-leader-austria-gets-ready-pass-torch"}, "geometry": {"type": "Point", "coordinates": [16.3725, 48.20864741]}}, {"type": "Feature", "properties": {"id": "35591", "title": "Songs, Slippers, and Shared Tables: A Glimpse Into Filipino Lives in Austria", "lang": "English", "date": "October 3, 2025", "url": "https://pulitzercenter.org/stories/songs-slippers-and-shared-tables-glimpse-filipino-lives-austria"}, "geometry": {"type": "Point", "coordinates": [16.3728336, 48.20855532]}}, {"type": "Feature", "properties": {"id": "35581", "title": "How Farmed Fish in Dutch Supermarkets Undermines Food Security in West Africa", "lang": "English", "date": "October 2, 2025", "url": "https://pulitzercenter.org/stories/how-farmed-fish-dutch-supermarkets-undermines-food-security-west-africa"}, "geometry": {"type": "Point", "coordinates": [-17.432, 14.672556]}}, {"type": "Feature", "properties": {"id": "35584", "title": "Between China, Kazakhstan, and Kyrgyzstan, the Uighurs Left to Their Fate on the ‘New Silk Roads’ (French)", "lang": "English", "date": "October 2, 2025", "url": "https://pulitzercenter.org/stories/between-china-kazakhstan-and-kyrgyzstan-uighurs-left-their-fate-new-silk-roads-french"}, "geometry": {"type": "Point", "coordinates": [78.391667, 42.490278]}}, {"type": "Feature", "properties": {"id": "35577", "title": "Culture du riz au Nord-Kivu: entre sécheresse, espoir et nouvelles semences", "lang": "French", "date": "octobre 1, 2025", "url": "https://pulitzercenter.org/fr/stories/culture-du-riz-au-nord-kivu-entre-secheresse-espoir-et-nouvelles-semences"}, "geometry": {"type": "Point", "coordinates": [29.466667, 0.5]}}, {"type": "Feature", "properties": {"id": "35576", "title": "Tough Choices Lie Ahead for Saving What’s Left of the Mississippi River Delta", "lang": "English", "date": "October 1, 2025", "url": "https://pulitzercenter.org/stories/tough-choices-lie-ahead-saving-whats-left-mississippi-river-delta"}, "geometry": {"type": "Point", "coordinates": [-89.9149, 29.6475]}}, {"type": "Feature", "properties": {"id": "35568", "title": "RDC: Des semences adaptées pour affronter le dérèglement climatique-points de vue des scientifiques", "lang": "French", "date": "septembre 30, 2025", "url": "https://pulitzercenter.org/fr/stories/rdc-des-semences-adaptees-pour-affronter-le-dereglement-climatique-points-de-vue-des"}, "geometry": {"type": "Point", "coordinates": [15.311944, -4.321944]}}, {"type": "Feature", "properties": {"id": "35573", "title": "Video: &#039;Coal Stole Our Pots and Gave Us Poison&#039;", "lang": "English", "date": "September 30, 2025", "url": "https://pulitzercenter.org/stories/video-coal-stole-our-pots-and-gave-us-poison"}, "geometry": {"type": "Point", "coordinates": [70.3675, 24.521944]}}, {"type": "Feature", "properties": {"id": "35556", "title": "Culture du maïs en RDC : la chenille légionnaire contrée par les semences améliorées et les techniques culturales", "lang": "French", "date": "septembre 29, 2025", "url": "https://pulitzercenter.org/fr/stories/culture-du-mais-en-rdc-la-chenille-legionnaire-contree-par-les-semences-ameliorees-et-les"}, "geometry": {"type": "Point", "coordinates": [15.311944, -4.32162959]}}, {"type": "Feature", "properties": {"id": "35562", "title": "RDC : face au dérèglement climatique, une recette pour sauver la culture de la pomme de terre", "lang": "French", "date": "septembre 29, 2025", "url": "https://pulitzercenter.org/fr/stories/rdc-face-au-dereglement-climatique-une-recette-pour-sauver-la-culture-de-la-pomme-de-terre"}, "geometry": {"type": "Point", "coordinates": [29.466667, 0.50031441]}}, {"type": "Feature", "properties": {"id": "35549", "title": "Deaths Spotlight Dark Side of Europe-Backed Microloans in Cambodia", "lang": "English", "date": "September 26, 2025", "url": "https://pulitzercenter.org/stories/deaths-spotlight-dark-side-europe-backed-microloans-cambodia"}, "geometry": {"type": "Point", "coordinates": [104.990963, 12.565679]}}, {"type": "Feature", "properties": {"id": "35545", "title": "Energy Scarcity and Extreme Heat in Appalachian Virginia", "lang": "English", "date": "September 26, 2025", "url": "https://pulitzercenter.org/stories/energy-scarcity-and-extreme-heat-appalachian-virginia"}, "geometry": {"type": "Point", "coordinates": [-82.576944, 36.978056]}}, {"type": "Feature", "properties": {"id": "35533", "title": "Illegal Gillnet Fishing Poses Threat to iSimangaliso’s Fragile Lakes", "lang": "English", "date": "September 25, 2025", "url": "https://pulitzercenter.org/stories/illegal-gillnet-fishing-poses-threat-isimangalisos-fragile-lakes"}, "geometry": {"type": "Point", "coordinates": [32.566667, -27.65]}}, {"type": "Feature", "properties": {"id": "35529", "title": "Tanzania’s Maasai People Facing Government Pressure To Leave", "lang": "English", "date": "September 25, 2025", "url": "https://pulitzercenter.org/stories/tanzanias-maasai-people-facing-government-pressure-leave"}, "geometry": {"type": "Point", "coordinates": [35.46, -3.21]}}, {"type": "Feature", "properties": {"id": "35517", "title": "Women As Guardians of the Sea: The Unspoken Role in Sasi Wondama", "lang": "English", "date": "September 24, 2025", "url": "https://pulitzercenter.org/stories/women-guardians-sea-unspoken-role-sasi-wondama"}, "geometry": {"type": "Point", "coordinates": [134.5, -2.7]}}, {"type": "Feature", "properties": {"id": "35512", "title": "Pakistan Floods Spark Cholera Fears Amid Other Rising Health Risks", "lang": "English", "date": "September 24, 2025", "url": "https://pulitzercenter.org/stories/pakistan-floods-spark-cholera-fears-amid-other-rising-health-risks"}, "geometry": {"type": "Point", "coordinates": [69.345116, 30.375321]}}, {"type": "Feature", "properties": {"id": "35518", "title": "Dodging New York Traffic: How Hundreds of Whales Are on a Collision Course With Ships and Boats", "lang": "English", "date": "September 24, 2025", "url": "https://pulitzercenter.org/stories/dodging-new-york-traffic-how-hundreds-whales-are-collision-course-ships-and-boats"}, "geometry": {"type": "Point", "coordinates": [-74.011944, 40.7075]}}, {"type": "Feature", "properties": {"id": "35505", "title": "Penjaga Hutan Halmahera Tersingkir Industri Nikel", "lang": "Indonesian", "date": "September 23, 2025", "url": "https://pulitzercenter.org/id/stories/penjaga-hutan-halmahera-tersingkir-industri-nikel"}, "geometry": {"type": "Point", "coordinates": [127.9, 0.65]}}, {"type": "Feature", "properties": {"id": "35497", "title": "The Long Fight To Protect Ghana’s Atewa Forest Goes On", "lang": "English", "date": "September 23, 2025", "url": "https://pulitzercenter.org/stories/long-fight-protect-ghanas-atewa-forest-goes"}, "geometry": {"type": "Point", "coordinates": [-0.2, 5.55031441]}}, {"type": "Feature", "properties": {"id": "35494", "title": "&#039;Clean Air Is an Expectation, Not a Luxury,&#039; Says Scientist Measuring LA Fires’ Toll on Air, Health", "lang": "English", "date": "September 23, 2025", "url": "https://pulitzercenter.org/stories/clean-air-expectation-not-luxury-says-scientist-measuring-la-fires-toll-air-health"}, "geometry": {"type": "Point", "coordinates": [-118.526944, 34.04837041]}}, {"type": "Feature", "properties": {"id": "35487", "title": "Pembunuh Suku Asli Halmahera itu Bernama “Ambisi Nikel Negara”", "lang": "Indonesian", "date": "September 22, 2025", "url": "https://pulitzercenter.org/id/stories/pembunuh-suku-asli-halmahera-itu-bernama-ambisi-nikel-negara"}, "geometry": {"type": "Point", "coordinates": [127.9, 0.65031441]}}, {"type": "Feature", "properties": {"id": "35483", "title": "News Analysis: ‘This Is Not Normal’; First Amendment Faces Extraordinary Pressures in the Wake of Kirk Assassination", "lang": "English", "date": "September 22, 2025", "url": "https://pulitzercenter.org/stories/news-analysis-not-normal-first-amendment-faces-extraordinary-pressures-wake-kirk"}, "geometry": {"type": "Point", "coordinates": [-77.016389, 38.904722]}}, {"type": "Feature", "properties": {"id": "35485", "title": "&#039;I Felt Like a Nobody&#039;: The Hidden Lives of Immigrant Caregivers", "lang": "English", "date": "September 22, 2025", "url": "https://pulitzercenter.org/stories/i-felt-nobody-hidden-lives-immigrant-caregivers"}, "geometry": {"type": "Point", "coordinates": [-77.016389, 38.90503641]}}, {"type": "Feature", "properties": {"id": "35478", "title": "A Shot at Survival: GBS Vaccine for Pregnant Women Nears Fruition", "lang": "English", "date": "September 19, 2025", "url": "https://pulitzercenter.org/stories/shot-survival-gbs-vaccine-pregnant-women-nears-fruition"}, "geometry": {"type": "Point", "coordinates": [28.030278, -26.190833]}}, {"type": "Feature", "properties": {"id": "35481", "title": "Aid Cuts Hit Uganda Hard. With Worry and Grit, It’s Finding New Ways To Save Lives", "lang": "English", "date": "September 19, 2025", "url": "https://pulitzercenter.org/stories/aid-cuts-hit-uganda-hard-worry-and-grit-its-finding-new-ways-save-lives"}, "geometry": {"type": "Point", "coordinates": [32.290275, 1.373333]}}, {"type": "Feature", "properties": {"id": "35477", "title": "‘Crisis of Justice’ As Floods Devastate: Pakistan’s Climate Change Minister", "lang": "English", "date": "September 19, 2025", "url": "https://pulitzercenter.org/stories/crisis-justice-floods-devastate-pakistans-climate-change-minister"}, "geometry": {"type": "Point", "coordinates": [69.3451, 30.37561441]}}, {"type": "Feature", "properties": {"id": "35476", "title": "Entangled: Cut the Cord; Save the Whales", "lang": "English", "date": "September 19, 2025", "url": "https://pulitzercenter.org/stories/entangled-cut-cord-save-whales"}, "geometry": {"type": "Point", "coordinates": [-95.712891, 37.09024]}}, {"type": "Feature", "properties": {"id": "35454", "title": "Under Milei, Rural Feminists Fight for Rights and Resources in Argentina", "lang": "English", "date": "September 17, 2025", "url": "https://pulitzercenter.org/stories/under-milei-rural-feminists-fight-rights-and-resources-argentina"}, "geometry": {"type": "Point", "coordinates": [-58.816667, -27.483333]}}, {"type": "Feature", "properties": {"id": "35449", "title": "West Virginia Farm Finds Potential Profitability in H-2A Program", "lang": "English", "date": "September 17, 2025", "url": "https://pulitzercenter.org/stories/west-virginia-farm-finds-potential-profitability-h-2a-program"}, "geometry": {"type": "Point", "coordinates": [-80.643611, 37.727778]}}, {"type": "Feature", "properties": {"id": "35447", "title": "How Billions of Hacked Mosquitoes and a Vaccine Could Beat the Deadly Dengue Virus", "lang": "English", "date": "September 16, 2025", "url": "https://pulitzercenter.org/stories/how-billions-hacked-mosquitoes-and-vaccine-could-beat-deadly-dengue-virus"}, "geometry": {"type": "Point", "coordinates": [-49.271111, -25.429722]}}, {"type": "Feature", "properties": {"id": "35436", "title": "Video: &#039;Illegal Fishing Threatens Sodwana Bay Livelihoods&#039;", "lang": "English", "date": "September 15, 2025", "url": "https://pulitzercenter.org/stories/video-illegal-fishing-threatens-sodwana-bay-livelihoods"}, "geometry": {"type": "Point", "coordinates": [32.683333, -27.533333]}}, {"type": "Feature", "properties": {"id": "35437", "title": "Countries Are Struggling To Meet the Rising Energy Demands of Data Centers", "lang": "English", "date": "September 15, 2025", "url": "https://pulitzercenter.org/stories/countries-are-struggling-meet-rising-energy-demands-data-centers"}, "geometry": {"type": "Point", "coordinates": [-100.391, 20.591]}}, {"type": "Feature", "properties": {"id": "35435", "title": "Video: &#039;Coal Water Destroyed Us&#039;", "lang": "English", "date": "September 15, 2025", "url": "https://pulitzercenter.org/stories/video-coal-water-destroyed-us"}, "geometry": {"type": "Point", "coordinates": [70.3675, 24.52225841]}}, {"type": "Feature", "properties": {"id": "35441", "title": "News Analysis: The First Amendment Is for Everyone — Equally", "lang": "English", "date": "September 15, 2025", "url": "https://pulitzercenter.org/stories/news-analysis-first-amendment-everyone-equally"}, "geometry": {"type": "Point", "coordinates": [-89.523056, 38.613889]}}, {"type": "Feature", "properties": {"id": "35439", "title": "News Analysis: Big Institutions Retreat From First Amendment Fight", "lang": "English", "date": "September 15, 2025", "url": "https://pulitzercenter.org/stories/news-analysis-big-institutions-retreat-first-amendment-fight"}, "geometry": {"type": "Point", "coordinates": [-77.01610331, 38.90494432]}}, {"type": "Feature", "properties": {"id": "35427", "title": "Lesotho HIV Patient Urges President Trump To Stop Politicising HIV", "lang": "English", "date": "September 12, 2025", "url": "https://pulitzercenter.org/stories/lesotho-hiv-patient-urges-president-trump-stop-politicising-hiv"}, "geometry": {"type": "Point", "coordinates": [28.2335, -29.6232]}}, {"type": "Feature", "properties": {"id": "35428", "title": "Carbone contre feu de bois : le pari vert du Bénin", "lang": "French", "date": "septembre 12, 2025", "url": "https://pulitzercenter.org/fr/stories/carbone-contre-feu-de-bois-le-pari-vert-du-benin"}, "geometry": {"type": "Point", "coordinates": [2.616667, 6.483333]}}, {"type": "Feature", "properties": {"id": "35429", "title": "Le pari vert du Benin", "lang": "French", "date": "septembre 12, 2025", "url": "https://pulitzercenter.org/fr/stories/le-pari-vert-du-benin"}, "geometry": {"type": "Point", "coordinates": [2.616667, 6.48364741]}}, {"type": "Feature", "properties": {"id": "35424", "title": "Scientists Clash Over Whether Polar Geoengineering Is a Dangerous Gamble", "lang": "English", "date": "September 12, 2025", "url": "https://pulitzercenter.org/stories/scientists-clash-over-whether-polar-geoengineering-dangerous-gamble"}, "geometry": {"type": "Point", "coordinates": [40.0, 72.0]}}, {"type": "Feature", "properties": {"id": "35416", "title": "Born Negative: How U.S. Funding Protected a Lesotho Grandson From His Family’s HIV Struggle", "lang": "English", "date": "September 11, 2025", "url": "https://pulitzercenter.org/stories/born-negative-how-us-funding-protected-lesotho-grandson-his-familys-hiv-struggle"}, "geometry": {"type": "Point", "coordinates": [28.2335, -29.62288559]}}, {"type": "Feature", "properties": {"id": "35413", "title": "Peru Accused of Violating Human Rights After Government Rejects Reserve for Uncontacted People", "lang": "English", "date": "September 11, 2025", "url": "https://pulitzercenter.org/stories/peru-accused-violating-human-rights-after-government-rejects-reserve-uncontacted-people"}, "geometry": {"type": "Point", "coordinates": [-71.788889, -4.484722]}}, {"type": "Feature", "properties": {"id": "35414", "title": "Incumplimiento, división y decepción: la huella de los mercados de carbono en la Amazonía colombiana", "lang": "Spanish", "date": "Septiembre 11, 2025", "url": "https://pulitzercenter.org/es/stories/incumplimiento-division-y-decepcion-la-huella-de-los-mercados-de-carbono-en-la-amazonia"}, "geometry": {"type": "Point", "coordinates": [-72.0, 1.0]}}, {"type": "Feature", "properties": {"id": "35410", "title": "The Goats Seeking To Prevent Fires in Chile (Spanish)", "lang": "English", "date": "September 10, 2025", "url": "https://pulitzercenter.org/stories/goats-seeking-prevent-fires-chile-spanish"}, "geometry": {"type": "Point", "coordinates": [-71.542969, -35.675147]}}, {"type": "Feature", "properties": {"id": "35411", "title": "Los bonos de carbono contaminado con pesticidas que está comprando Apple en Paraguay", "lang": "Spanish", "date": "Septiembre 10, 2025", "url": "https://pulitzercenter.org/es/stories/los-bonos-de-carbono-contaminado-con-pesticidas-que-esta-comprando-apple-en-paraguay"}, "geometry": {"type": "Point", "coordinates": [-57.634444, -25.28]}}, {"type": "Feature", "properties": {"id": "35407", "title": "Kawsay Ñampi: The Indigenous Proposal That Aims To Transform Carbon Credits (Spanish)", "lang": "English", "date": "September 10, 2025", "url": "https://pulitzercenter.org/stories/kawsay-nampi-indigenous-proposal-aims-transform-carbon-credits-spanish"}, "geometry": {"type": "Point", "coordinates": [-76.9, -0.8]}}, {"type": "Feature", "properties": {"id": "35408", "title": "From Airplanes to Estuaries: How Reporting in Costa Rica Changed the Way I See Home", "lang": "English", "date": "September 10, 2025", "url": "https://pulitzercenter.org/stories/airplanes-estuaries-how-reporting-costa-rica-changed-way-i-see-home"}, "geometry": {"type": "Point", "coordinates": [-84.964413, 9.826478]}}, {"type": "Feature", "properties": {"id": "35409", "title": "In One Indian State, Tech Companies Gain, Elders Lose in ‘Cradle to Grave’ Digital Governance", "lang": "English", "date": "September 10, 2025", "url": "https://pulitzercenter.org/stories/one-indian-state-tech-companies-gain-elders-lose-cradle-grave-digital-governance"}, "geometry": {"type": "Point", "coordinates": [78.96288, 20.59399841]}}, {"type": "Feature", "properties": {"id": "35406", "title": "Vans, North Face, Timberland: Are US Brands Skirting Forced Labour Law To Source From China?", "lang": "English", "date": "September 10, 2025", "url": "https://pulitzercenter.org/stories/vans-north-face-timberland-are-us-brands-skirting-forced-labour-law-source-china"}, "geometry": {"type": "Point", "coordinates": [85.0, 41.0]}}, {"type": "Feature", "properties": {"id": "35393", "title": "Nikel Si Biang Keladi Gastrokolonialisme Suku Asli Halmahera", "lang": "Indonesian", "date": "September 9, 2025", "url": "https://pulitzercenter.org/id/stories/nikel-si-biang-keladi-gastrokolonialisme-suku-asli-halmahera"}, "geometry": {"type": "Point", "coordinates": [127.841111, 0.698056]}}, {"type": "Feature", "properties": {"id": "35400", "title": "Sticks Against the Sea: As Oceans Rise, These Fishermen in West Africa Refuse To Wait", "lang": "English", "date": "September 9, 2025", "url": "https://pulitzercenter.org/stories/sticks-against-sea-oceans-rise-these-fishermen-west-africa-refuse-wait"}, "geometry": {"type": "Point", "coordinates": [-15.3176, 13.0152]}}, {"type": "Feature", "properties": {"id": "35399", "title": "Residents of KwaZulu-Natal Heritage Site Decry Illegal Trawling and Plastic Pollution", "lang": "English", "date": "September 9, 2025", "url": "https://pulitzercenter.org/stories/residents-kwazulu-natal-heritage-site-decry-illegal-trawling-and-plastic-pollution"}, "geometry": {"type": "Point", "coordinates": [25.0, 30.0]}}, {"type": "Feature", "properties": {"id": "35398", "title": "The Eyes of Chihuahua", "lang": "English", "date": "September 9, 2025", "url": "https://pulitzercenter.org/stories/eyes-chihuahua"}, "geometry": {"type": "Point", "coordinates": [-106.42, 31.6685]}}, {"type": "Feature", "properties": {"id": "35396", "title": "Video: The Public-Health Dilemma of State-Owned Tobacco Companies", "lang": "English", "date": "September 9, 2025", "url": "https://pulitzercenter.org/stories/video-public-health-dilemma-state-owned-tobacco-companies"}, "geometry": {"type": "Point", "coordinates": [116.3975, 39.906667]}}, {"type": "Feature", "properties": {"id": "35378", "title": "New Podcast Reveals How AI Is Being Used To Create Child Sexual Abuse Material", "lang": "English", "date": "September 8, 2025", "url": "https://pulitzercenter.org/stories/new-podcast-reveals-how-ai-being-used-create-child-sexual-abuse-material"}, "geometry": {"type": "Point", "coordinates": [-51.9253, -14.235]}}, {"type": "Feature", "properties": {"id": "35385", "title": "A retomada Puyanawa", "lang": "Portuguese", "date": "Setembro 8, 2025", "url": "https://pulitzercenter.org/pt-br/stories/retomada-puyanawa"}, "geometry": {"type": "Point", "coordinates": [-67.816667, -9.966667]}}, {"type": "Feature", "properties": {"id": "35387", "title": "No One Wants To Be the Fall Guy for Oil Spills off India’s Coast", "lang": "English", "date": "September 8, 2025", "url": "https://pulitzercenter.org/stories/no-one-wants-be-fall-guy-oil-spills-indias-coast"}, "geometry": {"type": "Point", "coordinates": [73.025, 17.995]}}, {"type": "Feature", "properties": {"id": "35381", "title": "Humans Are Altering the Seas. Here’s What the Future Ocean Might Look Like.", "lang": "English", "date": "September 8, 2025", "url": "https://pulitzercenter.org/stories/humans-are-altering-seas-heres-what-future-ocean-might-look"}, "geometry": {"type": "Point", "coordinates": [-80.572228, 32.376272]}}, {"type": "Feature", "properties": {"id": "35372", "title": "The Floods Kept Coming. He Needed To Grow a Crop That Would Thrive in Water — or To Quit.", "lang": "English", "date": "September 5, 2025", "url": "https://pulitzercenter.org/stories/floods-kept-coming-he-needed-grow-crop-would-thrive-water-or-quit"}, "geometry": {"type": "Point", "coordinates": [-89.85, 36.25]}}, {"type": "Feature", "properties": {"id": "35368", "title": "As Rising Sea Levels Swallow Bangladesh’s Land, Its Climate Refugees Are Forced To Adapt", "lang": "English", "date": "September 4, 2025", "url": "https://pulitzercenter.org/stories/rising-sea-levels-swallow-bangladeshs-land-its-climate-refugees-are-forced-adapt"}, "geometry": {"type": "Point", "coordinates": [90.356331, 23.684994]}}, {"type": "Feature", "properties": {"id": "35366", "title": "The Federal Farm Policy Trap: Why Some Farmers Are Stuck Raising Crops That No Longer Thrive", "lang": "English", "date": "September 4, 2025", "url": "https://pulitzercenter.org/stories/federal-farm-policy-trap-why-some-farmers-are-stuck-raising-crops-no-longer-thrive"}, "geometry": {"type": "Point", "coordinates": [-89.334722, 37.063889]}}, {"type": "Feature", "properties": {"id": "35362", "title": "Collaboration Strengthens &#039;Sasi&#039; in Wondama", "lang": "English", "date": "September 3, 2025", "url": "https://pulitzercenter.org/stories/collaboration-strengthens-sasi-wondama"}, "geometry": {"type": "Point", "coordinates": [140.716667, -2.533333]}}, {"type": "Feature", "properties": {"id": "35341", "title": "Más de la mitad de los créditos de carbono de la Amazonia brasilera está untada de minería", "lang": "Spanish", "date": "Agosto 29, 2025", "url": "https://pulitzercenter.org/es/stories/mas-de-la-mitad-de-los-creditos-de-carbono-de-la-amazonia-brasilera-esta-untada-de-mineria"}, "geometry": {"type": "Point", "coordinates": [-47.882778, -15.793889]}}, {"type": "Feature", "properties": {"id": "35345", "title": "In Post-War Ethiopia, Tigray’s Female Veterans Fear Being Forgotten", "lang": "English", "date": "August 29, 2025", "url": "https://pulitzercenter.org/stories/post-war-ethiopia-tigrays-female-veterans-fear-being-forgotten"}, "geometry": {"type": "Point", "coordinates": [39.476944, 13.496944]}}, {"type": "Feature", "properties": {"id": "35349", "title": "Companies Gain, Elders Lose in Rajasthan’s Turn to ‘Cradle to Grave’ Digital Governance", "lang": "English", "date": "August 29, 2025", "url": "https://pulitzercenter.org/stories/companies-gain-elders-lose-rajasthans-turn-cradle-grave-digital-governance"}, "geometry": {"type": "Point", "coordinates": [78.9631175, 20.59390632]}}, {"type": "Feature", "properties": {"id": "35336", "title": "División comunitaria, incertidumbre y impacto ambiental: las comunidades que pierden con los bonos de carbono", "lang": "Spanish", "date": "Agosto 28, 2025", "url": "https://pulitzercenter.org/es/stories/division-comunitaria-incertidumbre-y-impacto-ambiental-las-comunidades-que-pierden-con-los"}, "geometry": {"type": "Point", "coordinates": [-44.566667, -18.95]}}, {"type": "Feature", "properties": {"id": "35337", "title": "When Governments Own Tobacco Companies, Who Watches Out for Your Health?", "lang": "English", "date": "August 28, 2025", "url": "https://pulitzercenter.org/stories/when-governments-own-tobacco-companies-who-watches-out-your-health"}, "geometry": {"type": "Point", "coordinates": [31.235833, 30.044444]}}, {"type": "Feature", "properties": {"id": "35329", "title": "Fuelling the AGI Hype: The Recruitment Playbook To Land Big Tech Contracts", "lang": "English", "date": "August 27, 2025", "url": "https://pulitzercenter.org/stories/fuelling-agi-hype-recruitment-playbook-land-big-tech-contracts"}, "geometry": {"type": "Point", "coordinates": [18.423889, -33.925278]}}, {"type": "Feature", "properties": {"id": "35331", "title": "Shark Meat Exposé Supported by Pulitzer Center Sparks Call for Hearing and Industry Debate", "lang": "English", "date": "August 27, 2025", "url": "https://pulitzercenter.org/stories/shark-meat-expose-supported-pulitzer-center-sparks-call-hearing-and-industry-debate"}, "geometry": {"type": "Point", "coordinates": [-51.9253, -14.23468559]}}, {"type": "Feature", "properties": {"id": "35328", "title": "The Construction of a Waste Treatment Project in the Con Dao Primeval Forest (Vietnamese)", "lang": "English", "date": "August 27, 2025", "url": "https://pulitzercenter.org/stories/construction-waste-treatment-project-con-dao-primeval-forest-vietnamese"}, "geometry": {"type": "Point", "coordinates": [106.633333, 8.691667]}}, {"type": "Feature", "properties": {"id": "35334", "title": "Seeking a Solution for Waste Treatment in Con Dao (Vietnamese)", "lang": "English", "date": "August 27, 2025", "url": "https://pulitzercenter.org/stories/seeking-solution-waste-treatment-con-dao-vietnamese"}, "geometry": {"type": "Point", "coordinates": [108.433333, 11.95]}}, {"type": "Feature", "properties": {"id": "35324", "title": "&#039;Cuts and Consequences: The End of USAID&#039; (Documentary)", "lang": "English", "date": "August 26, 2025", "url": "https://pulitzercenter.org/stories/cuts-and-consequences-end-usaid-documentary"}, "geometry": {"type": "Point", "coordinates": [39.666667, -4.05]}}, {"type": "Feature", "properties": {"id": "35320", "title": "Pakistan’s Farmers Battle Floods, Debt and Climate-Driven Crisis", "lang": "English", "date": "August 26, 2025", "url": "https://pulitzercenter.org/stories/pakistans-farmers-battle-floods-debt-and-climate-driven-crisis"}, "geometry": {"type": "Point", "coordinates": [71.32, 34.0]}}, {"type": "Feature", "properties": {"id": "35317", "title": "¿Bosques olvidados? Alerta de baja biodiversidad en los mercados de carbono", "lang": "Spanish", "date": "Agosto 25, 2025", "url": "https://pulitzercenter.org/es/stories/bosques-olvidados-alerta-de-baja-biodiversidad-en-los-mercados-de-carbono"}, "geometry": {"type": "Point", "coordinates": [-73.037222, -36.828333]}}, {"type": "Feature", "properties": {"id": "35315", "title": "ANF Investigates: &#039;Tragedy in Paradise&#039;", "lang": "English", "date": "August 25, 2025", "url": "https://pulitzercenter.org/stories/anf-investigates-tragedy-paradise"}, "geometry": {"type": "Point", "coordinates": [-172.1048, -13.5833]}}, {"type": "Feature", "properties": {"id": "35314", "title": "Public Health Experts Debunk Common Myths About Measles Vaccine", "lang": "English", "date": "August 25, 2025", "url": "https://pulitzercenter.org/stories/public-health-experts-debunk-common-myths-about-measles-vaccine"}, "geometry": {"type": "Point", "coordinates": [-84.39, 33.748889]}}, {"type": "Feature", "properties": {"id": "35310", "title": "Only 11 States Hit 95%: Public Health Experts Warns of Measles Herd Immunity Drop", "lang": "English", "date": "August 22, 2025", "url": "https://pulitzercenter.org/stories/only-11-states-hit-95-public-health-experts-warns-measles-herd-immunity-drop"}, "geometry": {"type": "Point", "coordinates": [-172.1048, -13.7583]}}, {"type": "Feature", "properties": {"id": "35312", "title": "Del fogón andino al mercado global: América Latina y sus nuevas ventas de carbono en medio de la incertidumbre", "lang": "Spanish", "date": "Agosto 22, 2025", "url": "https://pulitzercenter.org/es/stories/del-fogon-andino-al-mercado-global-america-latina-y-sus-nuevas-ventas-de-carbono-en-medio"}, "geometry": {"type": "Point", "coordinates": [-77.0375, -12.06]}}, {"type": "Feature", "properties": {"id": "35308", "title": "Hepatitis B Deaths in SF Decline but Case Rates Still High, New Report Shows", "lang": "English", "date": "August 22, 2025", "url": "https://pulitzercenter.org/stories/hepatitis-b-deaths-sf-decline-case-rates-still-high-new-report-shows"}, "geometry": {"type": "Point", "coordinates": [-122.431297, 37.773972]}}, {"type": "Feature", "properties": {"id": "35300", "title": "‘Everything Is Dramatic Here’: U.S. Funding Cuts to HIV Response Worry Lesotho Mothers", "lang": "English", "date": "August 20, 2025", "url": "https://pulitzercenter.org/stories/everything-dramatic-here-us-funding-cuts-hiv-response-worry-lesotho-mothers"}, "geometry": {"type": "Point", "coordinates": [28.5, -29.5]}}, {"type": "Feature", "properties": {"id": "35301", "title": "A World Away, a Warning Ignored", "lang": "English", "date": "August 20, 2025", "url": "https://pulitzercenter.org/stories/world-away-warning-ignored"}, "geometry": {"type": "Point", "coordinates": [-172.105, -13.75798559]}}, {"type": "Feature", "properties": {"id": "35304", "title": "Agroquímicos: el problema detrás del boom forestal para créditos de carbono en Paraguay y Colombia", "lang": "Spanish", "date": "Agosto 20, 2025", "url": "https://pulitzercenter.org/es/stories/agroquimicos-el-problema-detras-del-boom-forestal-para-creditos-de-carbono-en-paraguay-y"}, "geometry": {"type": "Point", "coordinates": [-74.072222, 4.711111]}}, {"type": "Feature", "properties": {"id": "35299", "title": "Superstition Reaps a Harvest of Gold in Mohate", "lang": "English", "date": "August 20, 2025", "url": "https://pulitzercenter.org/stories/superstition-reaps-harvest-gold-mohate"}, "geometry": {"type": "Point", "coordinates": [78.0, 21.0]}}, {"type": "Feature", "properties": {"id": "35288", "title": "Carbon in Flames: How Wildfires Are Destroying Latin America’s Largest Carbon Sinks (Spanish)", "lang": "English", "date": "August 19, 2025", "url": "https://pulitzercenter.org/stories/carbon-flames-how-wildfires-are-destroying-latin-americas-largest-carbon-sinks-spanish"}, "geometry": {"type": "Point", "coordinates": [-72.933333, -37.166667]}}, {"type": "Feature", "properties": {"id": "35287", "title": "Palau Pledges Cleanup of Abuse-Riddled Ship-Flagging System", "lang": "English", "date": "August 19, 2025", "url": "https://pulitzercenter.org/stories/palau-pledges-cleanup-abuse-riddled-ship-flagging-system"}, "geometry": {"type": "Point", "coordinates": [134.4341, 7.3663]}}, {"type": "Feature", "properties": {"id": "35283", "title": "A Growing Trend: Opting Out of Childhood Vaccinations", "lang": "English", "date": "August 19, 2025", "url": "https://pulitzercenter.org/stories/growing-trend-opting-out-childhood-vaccinations"}, "geometry": {"type": "Point", "coordinates": [-84.39, 33.74920341]}}, {"type": "Feature", "properties": {"id": "35273", "title": "Guatemala’s Mixed Signals", "lang": "English", "date": "August 18, 2025", "url": "https://pulitzercenter.org/stories/guatemalas-mixed-signals"}, "geometry": {"type": "Point", "coordinates": [-90.513333, 14.641667]}}, {"type": "Feature", "properties": {"id": "35272", "title": "Back in Business: Zahkung Ting Ying Tries To Rebuild His Empire", "lang": "English", "date": "August 18, 2025", "url": "https://pulitzercenter.org/stories/back-business-zahkung-ting-ying-tries-rebuild-his-empire"}, "geometry": {"type": "Point", "coordinates": [96.115, 19.7475]}}, {"type": "Feature", "properties": {"id": "35270", "title": "Fight Against Tuberculosis Stalls in Bangladesh As U.S. Cuts Aid", "lang": "English", "date": "August 17, 2025", "url": "https://pulitzercenter.org/stories/fight-against-tuberculosis-stalls-bangladesh-us-cuts-aid"}, "geometry": {"type": "Point", "coordinates": [90.356331, 23.68530841]}}, {"type": "Feature", "properties": {"id": "35267", "title": "El MIDIS crea un canal para reportar errores que pueden dejarte fuera de programas sociales", "lang": "Spanish", "date": "Agosto 15, 2025", "url": "https://pulitzercenter.org/es/stories/el-midis-crea-un-canal-para-reportar-errores-que-pueden-dejarte-fuera-de-programas-sociales"}, "geometry": {"type": "Point", "coordinates": [-75.015152, -9.189967]}}, {"type": "Feature", "properties": {"id": "35268", "title": "The Cost of Sanctions: Dark Shipping Fleet Fuels Human Trafficking", "lang": "English", "date": "August 15, 2025", "url": "https://pulitzercenter.org/stories/cost-sanctions-dark-shipping-fleet-fuels-human-trafficking"}, "geometry": {"type": "Point", "coordinates": [-74.006111, 40.71309241]}}, {"type": "Feature", "properties": {"id": "35264", "title": "&#039;It Was Like Being a Martian on Earth&#039;: Two Chicago Men Reflect on Life After Wrongful Convictions", "lang": "English", "date": "August 15, 2025", "url": "https://pulitzercenter.org/stories/it-was-being-martian-earth-two-chicago-men-reflect-life-after-wrongful-convictions"}, "geometry": {"type": "Point", "coordinates": [-87.627778, 41.881944]}}, {"type": "Feature", "properties": {"id": "35259", "title": "Mineradora quer explorar terras raras dentro de quilombo no Tocantins", "lang": "Portuguese", "date": "Agosto 14, 2025", "url": "https://pulitzercenter.org/pt-br/stories/mineradora-quer-explorar-terras-raras-dentro-de-quilombo-no-tocantins"}, "geometry": {"type": "Point", "coordinates": [-47.882778, -15.79357459]}}, {"type": "Feature", "properties": {"id": "35252", "title": "Mercedes Losoya Lost Her Life to an Abusive Family and a Broken CPS System. Her Death Left a Community Scarred.", "lang": "English", "date": "August 13, 2025", "url": "https://pulitzercenter.org/stories/mercedes-losoya-lost-her-life-abusive-family-and-broken-cps-system-her-death-left-community"}, "geometry": {"type": "Point", "coordinates": [-95.383056, 29.762778]}}, {"type": "Feature", "properties": {"id": "35244", "title": "After Resettlement", "lang": "English", "date": "August 12, 2025", "url": "https://pulitzercenter.org/stories/after-resettlement"}, "geometry": {"type": "Point", "coordinates": [-9.4218, 6.4337]}}, {"type": "Feature", "properties": {"id": "35240", "title": "Looming Danger: Nigeria’s TB Fight on Life Support As Donors Pull the Plug", "lang": "English", "date": "August 12, 2025", "url": "https://pulitzercenter.org/stories/looming-danger-nigerias-tb-fight-life-support-donors-pull-plug"}, "geometry": {"type": "Point", "coordinates": [7.491389, 9.05587041]}}, {"type": "Feature", "properties": {"id": "35238", "title": "Pressure on Kachin Rare Earth Mines: What&#039;s Happening in Myanmar", "lang": "English", "date": "August 12, 2025", "url": "https://pulitzercenter.org/stories/pressure-kachin-rare-earth-mines-whats-happening-myanmar"}, "geometry": {"type": "Point", "coordinates": [96.115, 19.74781441]}}, {"type": "Feature", "properties": {"id": "35233", "title": "Sasi, Ecotourism, and Promising Blue Carbon in Wondama Bay", "lang": "English", "date": "August 11, 2025", "url": "https://pulitzercenter.org/stories/sasi-ecotourism-and-promising-blue-carbon-wondama-bay"}, "geometry": {"type": "Point", "coordinates": [134.5, -2.69968559]}}, {"type": "Feature", "properties": {"id": "35235", "title": "Bangladesh Faces Political Unrest and Uncertainty One Year After Leader’s Resignation", "lang": "English", "date": "August 11, 2025", "url": "https://pulitzercenter.org/stories/bangladesh-faces-political-unrest-and-uncertainty-one-year-after-leaders-resignation"}, "geometry": {"type": "Point", "coordinates": [90.388889, 23.764444]}}, {"type": "Feature", "properties": {"id": "35236", "title": "They Invested Over $30K Into Home Renovations. Then They Were Forced To Pay for Water Used Years Ago", "lang": "English", "date": "August 11, 2025", "url": "https://pulitzercenter.org/stories/they-invested-over-30k-home-renovations-then-they-were-forced-pay-water-used-years-ago"}, "geometry": {"type": "Point", "coordinates": [-82.323611, 27.865556]}}, {"type": "Feature", "properties": {"id": "35230", "title": "The Battle for Ukraine’s Geological Wealth", "lang": "English", "date": "August 11, 2025", "url": "https://pulitzercenter.org/stories/battle-ukraines-geological-wealth"}, "geometry": {"type": "Point", "coordinates": [37.802778, 48.015833]}}, {"type": "Feature", "properties": {"id": "35229", "title": "Amid Unrelenting Attacks on Ukraine, Mental Health Researchers Seek To Understand Psychological Toll", "lang": "English", "date": "August 11, 2025", "url": "https://pulitzercenter.org/stories/amid-unrelenting-attacks-ukraine-mental-health-researchers-seek-understand-psychological"}, "geometry": {"type": "Point", "coordinates": [35.04, 48.4675]}}, {"type": "Feature", "properties": {"id": "35226", "title": "Revealed: Brazilian State Buys Endangered Angelsharks for School Lunches", "lang": "English", "date": "August 8, 2025", "url": "https://pulitzercenter.org/stories/revealed-brazilian-state-buys-endangered-angelsharks-school-lunches"}, "geometry": {"type": "Point", "coordinates": [-51.92507064, -14.23477768]}}, {"type": "Feature", "properties": {"id": "35227", "title": "Ghana Approves Breakthrough Malaria Drug for Babies—but Research Is ‘On Ice’ Amid U.S. Funding Cuts", "lang": "English", "date": "August 8, 2025", "url": "https://pulitzercenter.org/stories/ghana-approves-breakthrough-malaria-drug-babies-research-ice-amid-us-funding-cuts"}, "geometry": {"type": "Point", "coordinates": [-1.0307, 7.9465]}}, {"type": "Feature", "properties": {"id": "35220", "title": "U.S. Helped Beat Back Malaria in Guinea. Now, the Disease Is Set To Soar", "lang": "English", "date": "August 8, 2025", "url": "https://pulitzercenter.org/stories/us-helped-beat-back-malaria-guinea-now-disease-set-soar"}, "geometry": {"type": "Point", "coordinates": [-9.6966, 9.9456]}}, {"type": "Feature", "properties": {"id": "35222", "title": "Rapid Development, Legal Changes Put Pressure on Vietnam’s Forestland", "lang": "English", "date": "August 8, 2025", "url": "https://pulitzercenter.org/stories/rapid-development-legal-changes-put-pressure-vietnams-forestland"}, "geometry": {"type": "Point", "coordinates": [103.970875, 10.420281]}}, {"type": "Feature", "properties": {"id": "35224", "title": "She Bought Her Home With Her Parents To Enjoy the Florida Winter. Now She Doesn’t Have Money To Live", "lang": "English", "date": "August 8, 2025", "url": "https://pulitzercenter.org/stories/she-bought-her-home-her-parents-enjoy-florida-winter-now-she-doesnt-have-money-live-0"}, "geometry": {"type": "Point", "coordinates": [-82.323611, 27.86587041]}}, {"type": "Feature", "properties": {"id": "35211", "title": "Indígenas Anacé protestam contra data center do TikTok no Ceará e pedem suspensão do licenciamento ambiental", "lang": "Portuguese", "date": "Agosto 7, 2025", "url": "https://pulitzercenter.org/pt-br/stories/indigenas-anace-protestam-contra-data-center-do-tiktok-no-ceara-e-pedem-suspensao-do"}, "geometry": {"type": "Point", "coordinates": [-51.92497563, -14.235]}}, {"type": "Feature", "properties": {"id": "35208", "title": "The Women Working To Protect Migrants in Brazil’s North", "lang": "English", "date": "August 7, 2025", "url": "https://pulitzercenter.org/stories/women-working-protect-migrants-brazils-north"}, "geometry": {"type": "Point", "coordinates": [-60.671389, 2.819444]}}, {"type": "Feature", "properties": {"id": "35213", "title": "From Displacement to Exploitation: Inside Brazil’s Human Trafficking Crisis", "lang": "English", "date": "August 7, 2025", "url": "https://pulitzercenter.org/stories/displacement-exploitation-inside-brazils-human-trafficking-crisis"}, "geometry": {"type": "Point", "coordinates": [-60.671389, 2.81975841]}}, {"type": "Feature", "properties": {"id": "35212", "title": "&#039;A Global Example&#039;: Brazil&#039;s Model for Migration Crisis", "lang": "English", "date": "August 7, 2025", "url": "https://pulitzercenter.org/stories/global-example-brazils-model-migration-crisis"}, "geometry": {"type": "Point", "coordinates": [-61.146111, 4.431111]}}, {"type": "Feature", "properties": {"id": "35210", "title": "Reporters Explain How Mobile Home Owners Are Being Priced Out by Rising Lot Rents", "lang": "English", "date": "August 7, 2025", "url": "https://pulitzercenter.org/stories/reporters-explain-how-mobile-home-owners-are-being-priced-out-rising-lot-rents"}, "geometry": {"type": "Point", "coordinates": [-81.6257, 28.1333]}}, {"type": "Feature", "properties": {"id": "35214", "title": "&#039;Allensworth Rising: A Fight for Water&#039;", "lang": "English", "date": "August 7, 2025", "url": "https://pulitzercenter.org/stories/allensworth-rising-fight-water"}, "geometry": {"type": "Point", "coordinates": [-119.389, 35.8636]}}, {"type": "Feature", "properties": {"id": "35196", "title": "Sasi and Indigenous Wisdom in Protecting Wondama Bay: Guardians of the Sea", "lang": "English", "date": "August 6, 2025", "url": "https://pulitzercenter.org/stories/sasi-and-indigenous-wisdom-protecting-wondama-bay-guardians-sea"}, "geometry": {"type": "Point", "coordinates": [134.50022257, -2.69977768]}}, {"type": "Feature", "properties": {"id": "35206", "title": "X-Press Pearl Verdict Deals a Major Blow to Sri Lanka&#039;s Attorney General (Sinhala)", "lang": "English", "date": "August 6, 2025", "url": "https://pulitzercenter.org/stories/x-press-pearl-verdict-deals-major-blow-sri-lankas-attorney-general-sinhala"}, "geometry": {"type": "Point", "coordinates": [81.0, 7.0]}}, {"type": "Feature", "properties": {"id": "35187", "title": "How Contamination, Flawed Clean-Up Efforts Define Life in Oil-Rich Niger Delta", "lang": "English", "date": "August 5, 2025", "url": "https://pulitzercenter.org/stories/how-contamination-flawed-clean-efforts-define-life-oil-rich-niger-delta"}, "geometry": {"type": "Point", "coordinates": [7.016316, 4.765466]}}, {"type": "Feature", "properties": {"id": "35188", "title": "Four Years On: Will Sri Lanka Miss Out on Further Compensation for the X-Press Pearl Disaster? (Sinhala)", "lang": "English", "date": "August 5, 2025", "url": "https://pulitzercenter.org/stories/four-years-will-sri-lanka-miss-out-further-compensation-x-press-pearl-disaster-sinhala"}, "geometry": {"type": "Point", "coordinates": [79.842778, 6.934444]}}, {"type": "Feature", "properties": {"id": "35193", "title": "She Thought She’d Found Her Serene Forever Home. She Was Evicted After Fees Kept Increasing", "lang": "English", "date": "August 5, 2025", "url": "https://pulitzercenter.org/stories/she-thought-shed-found-her-serene-forever-home-she-was-evicted-after-fees-kept-increasing"}, "geometry": {"type": "Point", "coordinates": [-82.32335952, 27.86577832]}}, {"type": "Feature", "properties": {"id": "35194", "title": "This Retiree Moved to Florida To Be Closer to Family. Now She’s Back at Work To Pay for Her Home", "lang": "English", "date": "August 5, 2025", "url": "https://pulitzercenter.org/stories/retiree-moved-florida-be-closer-family-now-shes-back-work-pay-her-home"}, "geometry": {"type": "Point", "coordinates": [-81.615556, 28.110278]}}, {"type": "Feature", "properties": {"id": "35186", "title": "A Curtain-Raiser to the 3rd United Nations World Oceans Conference (Sinhala)", "lang": "English", "date": "August 5, 2025", "url": "https://pulitzercenter.org/stories/curtain-raiser-3rd-united-nations-world-oceans-conference-sinhala"}, "geometry": {"type": "Point", "coordinates": [2.2137, 46.2276]}}, {"type": "Feature", "properties": {"id": "35191", "title": "As Ukraine’s War With Russia Grinds On, the Nation’s Civilian Scientists Are Playing a Growing Role in Military R&amp;D", "lang": "English", "date": "August 5, 2025", "url": "https://pulitzercenter.org/stories/ukraines-war-russia-grinds-nations-civilian-scientists-are-playing-growing-role-military-rd"}, "geometry": {"type": "Point", "coordinates": [30.523333, 50.45]}}, {"type": "Feature", "properties": {"id": "35184", "title": "‘Strategic Bargaining Chips’: Kachin’s Rare Earth Mining Pause", "lang": "English", "date": "August 4, 2025", "url": "https://pulitzercenter.org/stories/strategic-bargaining-chips-kachins-rare-earth-mining-pause"}, "geometry": {"type": "Point", "coordinates": [98.1333, 25.8833]}}, {"type": "Feature", "properties": {"id": "35176", "title": "How Florida’s Manufactured Home Parks Are Growing Unaffordable", "lang": "English", "date": "August 4, 2025", "url": "https://pulitzercenter.org/stories/how-floridas-manufactured-home-parks-are-growing-unaffordable"}, "geometry": {"type": "Point", "coordinates": [-82.32325535, 27.865556]}}, {"type": "Feature", "properties": {"id": "35177", "title": "A Sales-Pitch Pivot Brings Deep-Sea Mining Closer to Reality", "lang": "English", "date": "August 4, 2025", "url": "https://pulitzercenter.org/stories/sales-pitch-pivot-brings-deep-sea-mining-closer-reality"}, "geometry": {"type": "Point", "coordinates": [-75.695, 45.424722]}}, {"type": "Feature", "properties": {"id": "35152", "title": "Exclusive: Ship Operator “Extremely Disappointed” Over Sri Lanka Ruling on X-Press Pearl Disaster", "lang": "English", "date": "August 1, 2025", "url": "https://pulitzercenter.org/stories/exclusive-ship-operator-extremely-disappointed-over-sri-lanka-ruling-x-press-pearl-disaster"}, "geometry": {"type": "Point", "coordinates": [81.0, 7.00031441]}}, {"type": "Feature", "properties": {"id": "35157", "title": "Banished and Forgotten: A Story of Women Exiled Over Witchcraft", "lang": "English", "date": "August 1, 2025", "url": "https://pulitzercenter.org/stories/banished-and-forgotten-story-women-exiled-over-witchcraft"}, "geometry": {"type": "Point", "coordinates": [-0.442222, 10.5306]}}, {"type": "Feature", "properties": {"id": "35158", "title": "Guatemala: un millón de fronteras borrosas", "lang": "Spanish", "date": "Agosto 1, 2025", "url": "https://pulitzercenter.org/es/stories/guatemala-un-millon-de-fronteras-borrosas"}, "geometry": {"type": "Point", "coordinates": [-90.230759, 15.783471]}}, {"type": "Feature", "properties": {"id": "35151", "title": "Video: Living in the Shadow of Glaciers and Dams: A Himalayan Ticking Time-Bomb", "lang": "English", "date": "August 1, 2025", "url": "https://pulitzercenter.org/stories/video-living-shadow-glaciers-and-dams-himalayan-ticking-time-bomb"}, "geometry": {"type": "Point", "coordinates": [78.96321587, 20.593684]}}, {"type": "Feature", "properties": {"id": "35155", "title": "Collision Course: Ship Strikes Jeopardize the Endangered North Atlantic Right Whale’s Survival", "lang": "English", "date": "August 1, 2025", "url": "https://pulitzercenter.org/stories/collision-course-ship-strikes-jeopardize-endangered-north-atlantic-right-whales-survival"}, "geometry": {"type": "Point", "coordinates": [-72.474, 39.665]}}, {"type": "Feature", "properties": {"id": "35154", "title": "Podcast: Thousands of Connecticut Homes May Still Be Connected To Lead Pipes", "lang": "English", "date": "August 1, 2025", "url": "https://pulitzercenter.org/stories/podcast-thousands-connecticut-homes-may-still-be-connected-lead-pipes"}, "geometry": {"type": "Point", "coordinates": [-73.041389, 41.556111]}}, {"type": "Feature", "properties": {"id": "35143", "title": "Missionaries Using Secret Audio Devices To Evangelise Brazil’s Isolated Peoples", "lang": "English", "date": "July 31, 2025", "url": "https://pulitzercenter.org/stories/missionaries-using-secret-audio-devices-evangelise-brazils-isolated-peoples"}, "geometry": {"type": "Point", "coordinates": [-70.986111, -5.358889]}}, {"type": "Feature", "properties": {"id": "35148", "title": "&#039;Proselitismo 2.0&#039;: missionários usam aparelhos secretos para evangelizar indígenas isolados", "lang": "English", "date": "July 31, 2025", "url": "https://pulitzercenter.org/stories/proselitismo-20-missionarios-usam-aparelhos-secretos-para-evangelizar-indigenas-isolados"}, "geometry": {"type": "Point", "coordinates": [-70.986111, -5.35857459]}}, {"type": "Feature", "properties": {"id": "35149", "title": "Um computador, um rádio, um drone e uma espingarda: como missionários estão alcançando os povos isolados na Amazônia", "lang": "Portuguese", "date": "Julho 31, 2025", "url": "https://pulitzercenter.org/pt-br/stories/um-computador-um-radio-um-drone-e-uma-espingarda-como-missionarios-estao-alcancando-os"}, "geometry": {"type": "Point", "coordinates": [-70.9858877, -5.35866668]}}, {"type": "Feature", "properties": {"id": "35145", "title": "‘A Computer, a Radio, a Drone and a Shotgun’: How Missionaries Are Reaching Out to Brazil’s Isolated Peoples", "lang": "English", "date": "July 31, 2025", "url": "https://pulitzercenter.org/stories/computer-radio-drone-and-shotgun-how-missionaries-are-reaching-out-brazils-isolated-peoples"}, "geometry": {"type": "Point", "coordinates": [-70.98579521, -5.358889]}}, {"type": "Feature", "properties": {"id": "35150", "title": "Alvos de missionários, korubos de recente contato vivem dilema das &#039;tentações&#039; da cidade", "lang": "English", "date": "July 31, 2025", "url": "https://pulitzercenter.org/stories/alvos-de-missionarios-korubos-de-recente-contato-vivem-dilema-das-tentacoes-da-cidade"}, "geometry": {"type": "Point", "coordinates": [-70.9858877, -5.35911132]}}, {"type": "Feature", "properties": {"id": "35146", "title": "‘We Want Starlink’: From Isolation to Integration—What Happened to the Korubo People After Contact?", "lang": "English", "date": "July 31, 2025", "url": "https://pulitzercenter.org/stories/we-want-starlink-isolation-integration-what-happened-korubo-people-after-contact"}, "geometry": {"type": "Point", "coordinates": [-70.986111, -5.35920341]}}, {"type": "Feature", "properties": {"id": "35138", "title": "BBC Uncovers Lasting Toxic Legacy of Cargo Ship Disaster off Sri Lanka", "lang": "English", "date": "July 30, 2025", "url": "https://pulitzercenter.org/stories/bbc-uncovers-lasting-toxic-legacy-cargo-ship-disaster-sri-lanka"}, "geometry": {"type": "Point", "coordinates": [81.00022399, 7.00022232]}}, {"type": "Feature", "properties": {"id": "35139", "title": "Video: Investigation Into the X-Press Pearl Disaster", "lang": "English", "date": "July 30, 2025", "url": "https://pulitzercenter.org/stories/video-investigation-x-press-pearl-disaster"}, "geometry": {"type": "Point", "coordinates": [80.771797, 7.873054]}}, {"type": "Feature", "properties": {"id": "35135", "title": "That ‘Fish’ on the Menu? In Brazil’s Schools and Prisons, It’s Often Shark", "lang": "English", "date": "July 29, 2025", "url": "https://pulitzercenter.org/stories/fish-menu-brazils-schools-and-prisons-its-often-shark"}, "geometry": {"type": "Point", "coordinates": [-46.633947, -23.550394]}}, {"type": "Feature", "properties": {"id": "35136", "title": "No Food, No Pay, No Liberty: Marooned Sailors Plead With Shipowner To Be Rescued", "lang": "English", "date": "July 29, 2025", "url": "https://pulitzercenter.org/stories/no-food-no-pay-no-liberty-marooned-sailors-plead-shipowner-be-rescued"}, "geometry": {"type": "Point", "coordinates": [34.85, -19.833333]}}, {"type": "Feature", "properties": {"id": "35133", "title": "Los adultos mayores que el algoritmo no ve: las fallas del sistema que define la pobreza en Perú", "lang": "Spanish", "date": "Julio 29, 2025", "url": "https://pulitzercenter.org/es/stories/los-adultos-mayores-que-el-algoritmo-no-ve-las-fallas-del-sistema-que-define-la-pobreza-en"}, "geometry": {"type": "Point", "coordinates": [-77.0375, -12.05968559]}}, {"type": "Feature", "properties": {"id": "35134", "title": "Admitidos, pero sin pensión: la espera de Laura y más de 170 mil adultos mayores", "lang": "Spanish", "date": "Julio 29, 2025", "url": "https://pulitzercenter.org/es/stories/admitidos-pero-sin-pension-la-espera-de-laura-y-mas-de-170-mil-adultos-mayores"}, "geometry": {"type": "Point", "coordinates": [-77.03727266, -12.05977768]}}, {"type": "Feature", "properties": {"id": "35137", "title": "Sri Lankan Supreme Court Orders $1 Bn Compensation Over X-Press Pearl Disaster", "lang": "English", "date": "July 29, 2025", "url": "https://pulitzercenter.org/stories/sri-lankan-supreme-court-orders-1-bn-compensation-over-x-press-pearl-disaster"}, "geometry": {"type": "Point", "coordinates": [79.842778, 6.93475841]}}, {"type": "Feature", "properties": {"id": "35131", "title": "Finding Fish: How Contaminated Seafood Threatens Lives and Livelihoods in the Niger Delta", "lang": "English", "date": "July 28, 2025", "url": "https://pulitzercenter.org/stories/finding-fish-how-contaminated-seafood-threatens-lives-and-livelihoods-niger-delta"}, "geometry": {"type": "Point", "coordinates": [7.016316, 4.76578041]}}, {"type": "Feature", "properties": {"id": "35120", "title": "Documentary: &#039;A Poisoned Legacy&#039;", "lang": "English", "date": "July 28, 2025", "url": "https://pulitzercenter.org/stories/documentary-poisoned-legacy"}, "geometry": {"type": "Point", "coordinates": [6.470833, 5.326111]}}, {"type": "Feature", "properties": {"id": "35128", "title": "A Buried Threat: Thousands in Connecticut Might Still Be Drinking Water From Lead Pipes", "lang": "English", "date": "July 28, 2025", "url": "https://pulitzercenter.org/stories/buried-threat-thousands-connecticut-might-still-be-drinking-water-lead-pipes"}, "geometry": {"type": "Point", "coordinates": [-73.041389, 41.55642541]}}, {"type": "Feature", "properties": {"id": "35114", "title": "The Manmade Clouds That Could Help Save the Great Barrier Reef", "lang": "English", "date": "July 25, 2025", "url": "https://pulitzercenter.org/stories/manmade-clouds-could-help-save-great-barrier-reef"}, "geometry": {"type": "Point", "coordinates": [146.5483, -18.7063]}}, {"type": "Feature", "properties": {"id": "35116", "title": "Challenges Persist in TMC’s Bid To Mine the Deep Sea, Even After Boost From Trump", "lang": "English", "date": "July 25, 2025", "url": "https://pulitzercenter.org/stories/challenges-persist-tmcs-bid-mine-deep-sea-even-after-boost-trump"}, "geometry": {"type": "Point", "coordinates": [-73.985833, 40.7575]}}, {"type": "Feature", "properties": {"id": "35112", "title": "A ‘Dark Oxygen’ Mystery Is Unfolding at the Ocean Bottom—But Undersea Mining Giants May Soon Move In", "lang": "English", "date": "July 25, 2025", "url": "https://pulitzercenter.org/stories/dark-oxygen-mystery-unfolding-ocean-bottom-undersea-mining-giants-may-soon-move"}, "geometry": {"type": "Point", "coordinates": [-71.5258, 41.48071]}}, {"type": "Feature", "properties": {"id": "35113", "title": "What It’s Like To Live and Work on the Greenland Ice Sheet", "lang": "English", "date": "July 25, 2025", "url": "https://pulitzercenter.org/stories/what-its-live-and-work-greenland-ice-sheet"}, "geometry": {"type": "Point", "coordinates": [-69.75, 78.583333]}}, {"type": "Feature", "properties": {"id": "35107", "title": "Madagascar, terrain d’entraînement de l’IA", "lang": "French", "date": "juillet 24, 2025", "url": "https://pulitzercenter.org/fr/stories/madagascar-terrain-dentrainement-de-lia"}, "geometry": {"type": "Point", "coordinates": [47.525, -18.91]}}, {"type": "Feature", "properties": {"id": "35109", "title": "Biofuels in Congo", "lang": "English", "date": "July 24, 2025", "url": "https://pulitzercenter.org/stories/biofuels-congo"}, "geometry": {"type": "Point", "coordinates": [12.684, -4.114]}}, {"type": "Feature", "properties": {"id": "35108", "title": "Swept Away by Glacial Flood, Sikkim Dam Is Being Rebuilt — but Lives Downstream Remain Shattered", "lang": "English", "date": "July 24, 2025", "url": "https://pulitzercenter.org/stories/swept-away-glacial-flood-sikkim-dam-being-rebuilt-lives-downstream-remain-shattered"}, "geometry": {"type": "Point", "coordinates": [78.476681, 22.199166]}}, {"type": "Feature", "properties": {"id": "35099", "title": "El Surti Investigates: Rebellion Against the Crypto Farm (Spanish)", "lang": "English", "date": "July 22, 2025", "url": "https://pulitzercenter.org/stories/el-surti-investigates-rebellion-against-crypto-farm-spanish"}, "geometry": {"type": "Point", "coordinates": [-56.433333, -25.75]}}, {"type": "Feature", "properties": {"id": "35100", "title": "Assad Is Gone. But Can Syrians Go Home?", "lang": "English", "date": "July 22, 2025", "url": "https://pulitzercenter.org/stories/assad-gone-can-syrians-go-home"}, "geometry": {"type": "Point", "coordinates": [37.379167, 37.062778]}}, {"type": "Feature", "properties": {"id": "35092", "title": "How ‘Glof’ Became a Common Word in Sikkim – and Why It Haunts People Two Years Later", "lang": "English", "date": "July 21, 2025", "url": "https://pulitzercenter.org/stories/how-glof-became-common-word-sikkim-and-why-it-haunts-people-two-years-later"}, "geometry": {"type": "Point", "coordinates": [88.62, 27.33]}}, {"type": "Feature", "properties": {"id": "35098", "title": "Vidéosurveillance algorithmique : Veesion se désiste devant le Conseil d’État", "lang": "French", "date": "juillet 21, 2025", "url": "https://pulitzercenter.org/fr/stories/videosurveillance-algorithmique-veesion-se-desiste-devant-le-conseil-detat"}, "geometry": {"type": "Point", "coordinates": [2.352222, 48.856667]}}, {"type": "Feature", "properties": {"id": "35087", "title": "Photos: The Tanzania-Zambia Railway Is an Endurance Test for Travelers", "lang": "English", "date": "July 18, 2025", "url": "https://pulitzercenter.org/stories/photos-tanzania-zambia-railway-endurance-test-travelers"}, "geometry": {"type": "Point", "coordinates": [32.766667, -9.3]}}, {"type": "Feature", "properties": {"id": "35090", "title": "Health Organizers in San Francisco Build Model of Care for People Living With Chronic Hepatitis B", "lang": "English", "date": "July 18, 2025", "url": "https://pulitzercenter.org/stories/health-organizers-san-francisco-build-model-care-people-living-chronic-hepatitis-b"}, "geometry": {"type": "Point", "coordinates": [-122.416667, 37.783333]}}, {"type": "Feature", "properties": {"id": "35081", "title": "Weed Regulation Is Foundering. For Answers, Look to the Labs", "lang": "English", "date": "July 17, 2025", "url": "https://pulitzercenter.org/stories/weed-regulation-foundering-answers-look-labs"}, "geometry": {"type": "Point", "coordinates": [-98.0, 35.0]}}, {"type": "Feature", "properties": {"id": "35082", "title": "From El Salvador to the Mountain State: Farm Workers Search for Opportunity in the Unknown", "lang": "English", "date": "July 17, 2025", "url": "https://pulitzercenter.org/stories/el-salvador-mountain-state-farm-workers-search-opportunity-unknown"}, "geometry": {"type": "Point", "coordinates": [-80.643611, 37.72809241]}}, {"type": "Feature", "properties": {"id": "35075", "title": "El cobre que mueve al mundo: Zambia y el nuevo tablero global", "lang": "Spanish", "date": "Julio 16, 2025", "url": "https://pulitzercenter.org/es/stories/el-cobre-que-mueve-al-mundo-zambia-y-el-nuevo-tablero-global"}, "geometry": {"type": "Point", "coordinates": [28.283333, -15.416667]}}, {"type": "Feature", "properties": {"id": "35074", "title": "Analysis: Zambia Banks on China-Backed Rail Upgrade To Boost Mining Exports", "lang": "English", "date": "July 16, 2025", "url": "https://pulitzercenter.org/stories/analysis-zambia-banks-china-backed-rail-upgrade-boost-mining-exports"}, "geometry": {"type": "Point", "coordinates": [27.849332, -13.133897]}}, {"type": "Feature", "properties": {"id": "35073", "title": "Project Bringing Water to Drought-Ridden Land Could End With USAID’s Dismantling", "lang": "English", "date": "July 16, 2025", "url": "https://pulitzercenter.org/stories/project-bringing-water-drought-ridden-land-could-end-usaids-dismantling"}, "geometry": {"type": "Point", "coordinates": [38.6667, 0.883333]}}, {"type": "Feature", "properties": {"id": "35072", "title": "X-Press Pearl: A Special BBC Revelation About Toxic Plastic Fragments (Sinhala)", "lang": "English", "date": "July 16, 2025", "url": "https://pulitzercenter.org/stories/x-press-pearl-special-bbc-revelation-about-toxic-plastic-fragments-sinhala"}, "geometry": {"type": "Point", "coordinates": [79.833333, 6.916667]}}, {"type": "Feature", "properties": {"id": "35066", "title": "EU Biofuel Projects in the ‘Breadbasket of Congo’ Could Threaten Food Security, Investigation Finds", "lang": "English", "date": "July 15, 2025", "url": "https://pulitzercenter.org/stories/eu-biofuel-projects-breadbasket-congo-could-threaten-food-security-investigation-finds"}, "geometry": {"type": "Point", "coordinates": [12.684, -4.11368559]}}, {"type": "Feature", "properties": {"id": "35069", "title": "Presidential Commission on X-Press Pearl?", "lang": "English", "date": "July 15, 2025", "url": "https://pulitzercenter.org/stories/presidential-commission-x-press-pearl"}, "geometry": {"type": "Point", "coordinates": [79.84300196, 6.93466632]}}, {"type": "Feature", "properties": {"id": "35067", "title": "Syrians in Turkey Decide Whether To Return Home", "lang": "English", "date": "July 15, 2025", "url": "https://pulitzercenter.org/stories/syrians-turkey-decide-whether-return-home"}, "geometry": {"type": "Point", "coordinates": [37.379167, 37.06309241]}}, {"type": "Feature", "properties": {"id": "35071", "title": "Arctic Shipping Noise Is Silencing Narwhals and Shifting Their Movements, Study Finds", "lang": "English", "date": "July 15, 2025", "url": "https://pulitzercenter.org/stories/arctic-shipping-noise-silencing-narwhals-and-shifting-their-movements-study-finds"}, "geometry": {"type": "Point", "coordinates": [-77.961111, 72.7]}}, {"type": "Feature", "properties": {"id": "35059", "title": "Pulitzer Center Grantee&#039;s Journey To Learn About Taiwan’s Hidden Migrant Workforce", "lang": "English", "date": "July 14, 2025", "url": "https://pulitzercenter.org/stories/pulitzer-center-grantees-journey-learn-about-taiwans-hidden-migrant-workforce"}, "geometry": {"type": "Point", "coordinates": [120.960515, 23.69781]}}, {"type": "Feature", "properties": {"id": "35061", "title": "Abuse and Stunted Pay Push Migrants To Go Into Hiding (Filipino)", "lang": "English", "date": "July 14, 2025", "url": "https://pulitzercenter.org/stories/abuse-and-stunted-pay-push-migrants-go-hiding-filipino"}, "geometry": {"type": "Point", "coordinates": [121.0, 24.0]}}, {"type": "Feature", "properties": {"id": "35058", "title": "Podcast: The Silent Killer — Chronic Hepatitis B Threatens the Health of Asian Americans and Pacific Islanders", "lang": "English", "date": "July 14, 2025", "url": "https://pulitzercenter.org/stories/podcast-silent-killer-chronic-hepatitis-b-threatens-health-asian-americans-and-pacific"}, "geometry": {"type": "Point", "coordinates": [-95.712891, 37.09055441]}}, {"type": "Feature", "properties": {"id": "35062", "title": "Photo Essay: Seeing Political", "lang": "English", "date": "July 14, 2025", "url": "https://pulitzercenter.org/stories/photo-essay-seeing-political"}, "geometry": {"type": "Point", "coordinates": [-77.008889, 38.889722]}}, {"type": "Feature", "properties": {"id": "35047", "title": "Japan’s Nuclear Revival and the Fight Over Indigenous Land", "lang": "English", "date": "July 11, 2025", "url": "https://pulitzercenter.org/stories/japans-nuclear-revival-and-fight-over-indigenous-land"}, "geometry": {"type": "Point", "coordinates": [140.67, 38.9]}}, {"type": "Feature", "properties": {"id": "35043", "title": "These Faceless Sea Creatures Are Helping To Revive Seagrass and Prevent ‘Carbon Bombs’", "lang": "English", "date": "July 10, 2025", "url": "https://pulitzercenter.org/stories/these-faceless-sea-creatures-are-helping-revive-seagrass-and-prevent-carbon-bombs"}, "geometry": {"type": "Point", "coordinates": [113.5, -25.5]}}, {"type": "Feature", "properties": {"id": "35039", "title": "Commentary: Trump’s Aid Cuts Have Broken Global Health — but We Can Fight Back", "lang": "English", "date": "July 10, 2025", "url": "https://pulitzercenter.org/stories/commentary-trumps-aid-cuts-have-broken-global-health-we-can-fight-back"}, "geometry": {"type": "Point", "coordinates": [77.23, 28.61]}},